[{"id":"d8eef67f-1385-43e2-882a-a1157970e7d1","name":"Senior Research Manager","longitude":-71.06380230680134,"latitude":42.35479118855339,"photoNum":79},{"id":"3c7835fc-5bd9-4cc0-b694-07d14d102d4a","name":"Investor Web Liaison","longitude":-118.21041941294743,"latitude":33.78093999662082,"photoNum":139},{"id":"753e0c1c-8e0c-4764-928a-28ccc9860f0a","name":"Forward Creative Coordinator","longitude":-94.37805640868811,"latitude":38.92232050587974,"photoNum":59},{"id":"c10d078d-07e2-4628-830d-51b47231a2ed","name":"Human Quality Coordinator","longitude":-81.7225067945642,"latitude":41.39876295989212,"photoNum":179},{"id":"b73f675d-0778-4733-b97c-31e1529a3ff0","name":"Global Assurance Strategist","longitude":-86.52511329984134,"latitude":39.171435323161354,"photoNum":146},{"id":"491001a3-57fd-4f87-b5ea-ee71646e8e7e","name":"Chief Quality Agent","longitude":-119.68373850385319,"latitude":34.41662523524154,"photoNum":5},{"id":"66887c68-4077-4495-a648-3b34159010be","name":"Central Integration Specialist","longitude":-112.22874403767833,"latitude":33.576879139471245,"photoNum":178},{"id":"5abdd792-7889-4665-94dc-a5bcca224d23","name":"Lead Response Facilitator","longitude":-82.94158709130988,"latitude":40.1295361533674,"photoNum":127},{"id":"dc26a10c-e8d4-44dc-87ef-c7aeffcfd11e","name":"International Operations Specialist","longitude":-96.82510648835705,"latitude":33.14467777533776,"photoNum":156},{"id":"7f1d3831-e2b3-4f86-8efc-b508bdd9efe2","name":"Senior Metrics Representative","longitude":-111.65386149315952,"latitude":35.19406457704634,"photoNum":108},{"id":"92471abe-2df4-4e8b-9d08-e7fd92660d1a","name":"Principal Response Assistant","longitude":-122.23744720820628,"latitude":37.48481642973036,"photoNum":11},{"id":"cc822e93-fe72-4c2e-a07f-c7d8f3a80c85","name":"Global Accountability Technician","longitude":-71.79815333071815,"latitude":42.567306206521074,"photoNum":42},{"id":"c73b0168-eb03-47d7-bdef-65d871a9c5ba","name":"Regional Assurance Agent","longitude":-111.70491565453688,"latitude":40.28292675162454,"photoNum":141},{"id":"b81582c0-072b-4cf4-a353-b1be27439cce","name":"Customer Operations Liaison","longitude":-79.44169558973078,"latitude":36.10007857350102,"photoNum":66},{"id":"a6dd4e50-af74-4c1f-8928-54fa2a2688f0","name":"Chief Accounts Supervisor","longitude":-115.55540452783214,"latitude":32.78414260815452,"photoNum":15},{"id":"bb81a9ea-fd4d-4677-b16e-f4a44c3f86aa","name":"Direct Intranet Planner","longitude":-96.68324512401131,"latitude":40.8165153899089,"photoNum":10},{"id":"62cdc71c-3f09-4eb1-ba3d-ec58873d670d","name":"Central Optimization Manager","longitude":-122.71288324030309,"latitude":38.342353613273836,"photoNum":119},{"id":"376fc2ec-7fc1-4c06-97ca-dd4d3560aeff","name":"Human Response Orchestrator","longitude":-117.72750236445086,"latitude":33.569140474366385,"photoNum":103},{"id":"70ed1767-fe95-4cb4-827e-216c8325b1ad","name":"Future Communications Developer","longitude":-94.11035198270662,"latitude":36.33260341755625,"photoNum":11},{"id":"c23fe291-18fe-4ab9-90af-67fcb89eb58e","name":"Direct Brand Associate","longitude":-82.32315077174309,"latitude":29.653054747253996,"photoNum":101},{"id":"c52dcd3a-54e2-4b10-a6fb-0266800ae174","name":"Dynamic Accounts Liaison","longitude":-84.88117892236971,"latitude":35.14715156631476,"photoNum":145},{"id":"74c8abe0-5476-41b3-95e9-4852599275c9","name":"Investor Implementation Agent","longitude":-116.96652265043303,"latitude":32.84112677760531,"photoNum":113},{"id":"695caad5-7914-4cfd-a538-743a4409942c","name":"Dynamic Usability Consultant","longitude":-74.20615910750729,"latitude":40.76469284265209,"photoNum":117},{"id":"40db9941-d494-4a74-827c-3215879f7465","name":"Legacy Configuration Representative","longitude":-75.52604168993048,"latitude":39.753236374834806,"photoNum":170},{"id":"273f6f6c-8b79-4800-8108-ebcacce0a74a","name":"Dynamic Group Director","longitude":-122.51916079362155,"latitude":47.16683549740252,"photoNum":124},{"id":"36920610-c4d5-49b6-b8fc-5008555c32bb","name":"Human Solutions Engineer","longitude":-117.07882488179553,"latitude":32.62448258165748,"photoNum":100},{"id":"eb8aab4a-922c-44ae-ab61-244b0c824ecd","name":"Chief Configuration Architect","longitude":-81.96469526912568,"latitude":26.56274015064212,"photoNum":98},{"id":"d4ca5e18-8483-4314-837f-bfa30f5e75f7","name":"Direct Applications Designer","longitude":-80.02781344753225,"latitude":32.96553795662134,"photoNum":181},{"id":"cc03b10b-686c-4d7c-bda7-ac61e4a63839","name":"International Directives Designer","longitude":-117.28643886333492,"latitude":34.52763223204372,"photoNum":8},{"id":"695afc51-1d65-436f-9a47-faf9c01f6e3e","name":"Future Integration Administrator","longitude":-77.02970363610137,"latitude":38.90224831747558,"photoNum":97},{"id":"0df7e639-13f1-4a0f-842c-35e74b52ab1a","name":"Chief Response Facilitator","longitude":-82.55293562989709,"latitude":36.54400554810824,"photoNum":57},{"id":"7207e5a6-3f16-42e5-81b2-2dfba325c970","name":"Corporate Operations Strategist","longitude":-73.0777889375891,"latitude":41.22285733082981,"photoNum":162},{"id":"d9cdb9de-0e3d-4b2d-9ced-d044bd4b1c58","name":"Legacy Intranet Director","longitude":-77.54865809030923,"latitude":39.10600356902499,"photoNum":145},{"id":"eaf2e980-00ff-4981-a699-ee679a1a6620","name":"Dynamic Markets Producer","longitude":-87.80018905628793,"latitude":42.081151797600704,"photoNum":53},{"id":"ff6a859f-d203-4d52-b872-7a9480d460d0","name":"Regional Usability Executive","longitude":-80.41715654506436,"latitude":37.21998563065381,"photoNum":164},{"id":"d8b009a0-b43a-447a-9431-5b90a5432e1a","name":"Principal Tactics Agent","longitude":-88.32818241852908,"latitude":41.77704756060168,"photoNum":158},{"id":"452336bc-8ba5-4ff3-acda-db0768bfdba6","name":"Human Web Technician","longitude":-75.52504434775142,"latitude":39.15502659590644,"photoNum":58},{"id":"c2b2c70d-2d76-4f41-9063-062723a2f189","name":"Corporate Accounts Analyst","longitude":-101.84347862226878,"latitude":35.22977657084871,"photoNum":159},{"id":"f069dfbd-aca9-4663-b418-53e953dae06d","name":"Forward Accountability Producer","longitude":-117.17016507501972,"latitude":33.14418839591696,"photoNum":158},{"id":"9544fd56-cc1b-48e4-9cd8-6297e8501ad6","name":"Legacy Creative Facilitator","longitude":-80.09161947866232,"latitude":26.527396465418168,"photoNum":86},{"id":"08f32cbf-cf5b-4067-ac15-e511c9674c5b","name":"District Implementation Associate","longitude":-96.95005416787149,"latitude":32.60066471558242,"photoNum":50},{"id":"b8f812a0-a8ce-4f71-a5f6-bcd4a6d052ef","name":"Regional Creative Producer","longitude":-74.27288632880993,"latitude":40.68610657241654,"photoNum":179},{"id":"ae50ff1b-5e8e-4d5a-a488-3a2b49fe241d","name":"Internal Functionality Coordinator","longitude":-87.84321834279956,"latitude":42.3633610740063,"photoNum":52},{"id":"4be3295b-86fc-43cf-a428-72e531d863ed","name":"Senior Brand Strategist","longitude":-115.13220615623902,"latitude":36.198477537133606,"photoNum":45},{"id":"690fc88d-7451-4bd5-86b9-19b52b6cf563","name":"Regional Infrastructure Producer","longitude":-104.87442801873681,"latitude":39.58998422729793,"photoNum":165},{"id":"c74c78f9-9541-49d9-b87b-2d6ad2c39e56","name":"Forward Functionality Technician","longitude":-122.19093253902906,"latitude":47.67687492402183,"photoNum":139},{"id":"a64e36bd-3984-4681-8ea7-bca466506d19","name":"Dynamic Functionality Engineer","longitude":-85.48627860906657,"latitude":32.598324277753775,"photoNum":170},{"id":"457db9ae-dcc5-43bb-81d9-277d6b2e3ce5","name":"District Tactics Designer","longitude":-105.09855753186457,"latitude":39.80572947147583,"photoNum":45},{"id":"e1cf696f-2b32-4697-9254-2c2a38731f8d","name":"Product Creative Officer","longitude":-82.59276325860321,"latitude":27.49367169096511,"photoNum":150},{"id":"ae4d8495-18f4-4c57-adb9-0660ca1cbdbc","name":"Dynamic Accounts Coordinator","longitude":-82.52198955720974,"latitude":40.742739416811744,"photoNum":113},{"id":"d59c27ad-e3aa-42de-86c5-c28a82f4ef31","name":"Principal Accounts Supervisor","longitude":-82.2474848841772,"latitude":27.03642456365349,"photoNum":160},{"id":"41ef33b1-7dab-4f81-9771-8a364adb77e9","name":"Product Communications Representative","longitude":-111.96191785898804,"latitude":40.66989013511638,"photoNum":183},{"id":"a63a82d1-0f93-49eb-95b8-60d9224a59cc","name":"Regional Quality Supervisor","longitude":-87.10557224429346,"latitude":37.7725422171284,"photoNum":166},{"id":"a61ad793-4e4b-4e0e-b164-059b9dece889","name":"Internal Integration Supervisor","longitude":-112.01049396540179,"latitude":40.67637970362315,"photoNum":125},{"id":"7c6c5a3f-fbfc-47de-91cb-83a2474efdf6","name":"Product Factors Strategist","longitude":-104.97684076025178,"latitude":39.89407333048693,"photoNum":117},{"id":"3f07b624-b161-4b30-8f2e-0953a7ecb933","name":"Central Group Manager","longitude":-111.5495828231571,"latitude":33.40872685643464,"photoNum":167},{"id":"5e78b09c-b134-4ddd-9b7f-3a42fecdf59f","name":"Dynamic Branding Technician","longitude":-85.77390002805242,"latitude":38.2612245708935,"photoNum":140},{"id":"979f5645-0bb2-450d-b0f3-d76feadcfe43","name":"Corporate Implementation Planner","longitude":-97.82769117846289,"latitude":30.491758087272874,"photoNum":127},{"id":"121d45b8-35c2-48c9-ae84-cb0fc9d43aec","name":"Dynamic Directives Planner","longitude":-97.34208920465102,"latitude":32.76413760816001,"photoNum":45},{"id":"e07ad86b-885a-41b8-9103-e6ed069c4c65","name":"District Applications Developer","longitude":-112.04563858030832,"latitude":33.05577381945777,"photoNum":95},{"id":"17b83b4e-4b5f-4281-bf83-490517a397c4","name":"Human Functionality Analyst","longitude":-117.56658090085892,"latitude":33.87532074106231,"photoNum":18},{"id":"e5bd5ec6-c0ef-4890-8d30-b681dcce1144","name":"Future Metrics Coordinator","longitude":-97.27115206797146,"latitude":32.793452336227965,"photoNum":75},{"id":"40a5e977-716c-46f1-8e4d-609c37ecba6b","name":"District Mobility Planner","longitude":-121.55129271063299,"latitude":38.576683000416,"photoNum":133},{"id":"791f8728-babe-49b6-99b5-bfc2dbda0331","name":"Product Paradigm Orchestrator","longitude":-106.4353922729535,"latitude":31.772874564633465,"photoNum":41},{"id":"8e182ad6-863b-4344-8ea8-76e8f8552de8","name":"Global Assurance Facilitator","longitude":-94.1989085002989,"latitude":36.38377366844931,"photoNum":134},{"id":"a5e27a24-d835-468a-a414-bed3df9385b2","name":"Dynamic Group Director","longitude":-94.38895454403337,"latitude":35.38287722244217,"photoNum":7},{"id":"83a642e6-b4db-49d1-b389-0862614c96ba","name":"District Marketing Coordinator","longitude":-116.20423244960824,"latitude":33.71822300855514,"photoNum":10},{"id":"dcb7dfc9-f36a-4a35-9939-1616916a41e6","name":"Investor Research Consultant","longitude":-120.8478270297951,"latitude":37.500945903186654,"photoNum":92},{"id":"644ea47c-5f68-42ab-9748-6c4ffebd23f4","name":"Dynamic Integration Facilitator","longitude":-88.3128737286554,"latitude":41.769409096961624,"photoNum":116},{"id":"dff27784-1e05-4241-808b-c298a046a651","name":"Customer Accountability Supervisor","longitude":-71.06470758367709,"latitude":42.351012120766995,"photoNum":1},{"id":"79e0afdd-be65-4d6f-b7b8-434c22efc25d","name":"Regional Applications Consultant","longitude":-84.544675783598,"latitude":33.957898371401036,"photoNum":128},{"id":"650b3512-2806-48ae-a902-d793d341063d","name":"Chief Functionality Orchestrator","longitude":-89.40627608131916,"latitude":43.08459830134769,"photoNum":28},{"id":"a3c38c42-7019-4f02-9c7a-220a0d665b56","name":"Principal Interactions Designer","longitude":-88.70380525865443,"latitude":32.3638308097198,"photoNum":166},{"id":"461798c5-c172-492f-8c28-36f653ba3445","name":"Direct Paradigm Orchestrator","longitude":-97.32995245311747,"latitude":32.545997703658266,"photoNum":45},{"id":"d530060c-f6f4-4428-945e-043d4a07a009","name":"International Functionality Manager","longitude":-96.7904892745895,"latitude":46.87761773134423,"photoNum":64},{"id":"4239fee0-c10e-4c41-b1d6-87d131b34b67","name":"Dynamic Security Consultant","longitude":-77.73997993278789,"latitude":39.640002652031626,"photoNum":181},{"id":"a6ee30de-6605-446b-bef8-b0d2a6156c0c","name":"Human Directives Director","longitude":-85.97355217305324,"latitude":41.680777635159046,"photoNum":131},{"id":"8243d1d4-c125-4cce-abed-8863ba5da190","name":"Investor Optimization Officer","longitude":-117.29072585002638,"latitude":33.02670075604353,"photoNum":1},{"id":"6d37f269-3e47-4582-bd8a-ce5bd7d63d29","name":"Human Operations Liaison","longitude":-86.4720660767149,"latitude":36.9541679593109,"photoNum":61},{"id":"3ce08a8e-c792-476e-9de4-5fe641be2083","name":"Senior Usability Assistant","longitude":-80.17381357440803,"latitude":33.03485339240662,"photoNum":148},{"id":"9db9ea54-38f0-4b2e-8185-27e9afc61e6a","name":"Regional Brand Representative","longitude":-81.4128243958736,"latitude":28.296480246970905,"photoNum":186},{"id":"a70b4257-79c4-432f-bd9a-77b499449c2f","name":"Central Implementation Agent","longitude":-118.16381263934238,"latitude":34.68568748464042,"photoNum":128},{"id":"5a1567c3-ee4f-4991-8e54-b872ca8d60fe","name":"District Accountability Consultant","longitude":-76.1352468159622,"latitude":43.0395295769933,"photoNum":81},{"id":"77df7ca0-6a8d-4687-ac9d-1608bef75035","name":"Senior Identity Supervisor","longitude":-84.55394777645802,"latitude":39.35581614706443,"photoNum":82},{"id":"ba3bd4e6-1eda-44db-86cd-9f30469f133c","name":"Lead Markets Engineer","longitude":-85.56828518274375,"latitude":42.20214149655896,"photoNum":190},{"id":"b4e539c1-f974-402b-a630-116218d44904","name":"Legacy Brand Technician","longitude":-97.22704722844264,"latitude":32.8291636634123,"photoNum":82},{"id":"f3ff748f-a5e3-47c1-a3fe-8d983d805174","name":"Direct Interactions Facilitator","longitude":-122.43029351628644,"latitude":37.76185016273865,"photoNum":170},{"id":"fe83b7f8-0463-4ef4-a085-2695452e631d","name":"Investor Security Engineer","longitude":-83.40298925828074,"latitude":42.31097184255131,"photoNum":32},{"id":"3bd9fab1-9803-4f04-a153-b40544501dea","name":"Corporate Operations Supervisor","longitude":-71.05456347927185,"latitude":42.39340242693334,"photoNum":4},{"id":"3754faf3-7515-4800-b42c-8a79c896d1e1","name":"Human Quality Representative","longitude":-117.27047148393876,"latitude":34.10038326199316,"photoNum":102},{"id":"047a68ad-3aca-463d-9ada-92c3830a2a81","name":"Human Optimization Liaison","longitude":-88.0014916201942,"latitude":41.874456424496564,"photoNum":18},{"id":"ccd1b0df-7d4e-4f1b-a8ad-d61f131122f0","name":"Global Security Supervisor","longitude":-75.66714865351139,"latitude":41.399258641814626,"photoNum":178},{"id":"838551d2-3729-469a-889d-85d423f9f733","name":"Chief Group Designer","longitude":-120.99813874379646,"latitude":37.63866605606032,"photoNum":66},{"id":"eae31012-0987-46e7-86b0-2627db57dcc9","name":"Principal Marketing Manager","longitude":-97.48023811017799,"latitude":35.6519878348924,"photoNum":31},{"id":"6e95989f-1ee2-4192-9e8e-26c2374784e8","name":"District Group Analyst","longitude":-97.61966741642573,"latitude":30.43882114307664,"photoNum":167},{"id":"cf2c4fb6-91b7-4801-9912-1513b5656b43","name":"Product Communications Liaison","longitude":-83.28394963595815,"latitude":42.2455742068077,"photoNum":100},{"id":"e69b2c81-8d53-41c3-9018-e0304f6a7e90","name":"Product Paradigm Designer","longitude":-121.22962002009149,"latitude":38.79453401392697,"photoNum":66},{"id":"b69c3bef-4645-4bb6-af86-ee5404397720","name":"Senior Division Technician","longitude":-80.84204910711514,"latitude":35.22540115055491,"photoNum":135},{"id":"90c32314-30de-4a03-b999-d149147bd217","name":"Future Optimization Associate","longitude":-80.37134466166907,"latitude":25.82043896950384,"photoNum":121},{"id":"16fe6804-692d-48b4-b686-c35778e6f5c0","name":"Dynamic Accountability Consultant","longitude":-118.21543247423057,"latitude":33.976120046477064,"photoNum":105},{"id":"670795e8-a4ed-4674-83a3-cc68138dc1ea","name":"Customer Accountability Coordinator","longitude":-83.73416930662489,"latitude":42.27850488690415,"photoNum":177},{"id":"a1492d77-3bba-4496-9ee7-2fbc93a81d6b","name":"International Paradigm Administrator","longitude":-76.59799919343368,"latitude":39.29474460526011,"photoNum":127},{"id":"90f61ba2-5534-432f-a625-e19e99e731d5","name":"Dynamic Division Associate","longitude":-112.0654798373061,"latitude":33.055940127084085,"photoNum":159},{"id":"18b2912b-37b1-4553-8bf1-08ad782addb9","name":"Internal Intranet Specialist","longitude":-83.94196748977669,"latitude":43.40472160460914,"photoNum":140},{"id":"dd8dde5b-b39b-4ebe-8908-2cf5f1e696ca","name":"Forward Paradigm Technician","longitude":-118.25131183923133,"latitude":34.144232314118995,"photoNum":47},{"id":"d48a66a8-3ee8-43fe-94f2-1671d4196e72","name":"Regional Data Designer","longitude":-122.43349910871098,"latitude":47.25283188100638,"photoNum":13},{"id":"e720b6b0-1d30-4f63-8893-33d747ab27e2","name":"Chief Tactics Developer","longitude":-84.48795739533296,"latitude":38.03423888564161,"photoNum":145},{"id":"12bc687d-3c45-4402-8d70-a107faf2b7f6","name":"Human Accounts Specialist","longitude":-122.42892022946637,"latitude":45.500401999745094,"photoNum":133},{"id":"6c051d20-d048-4b0d-95e0-4e3094a31e2e","name":"Chief Implementation Executive","longitude":-82.5981623168708,"latitude":39.73113991324237,"photoNum":40},{"id":"40fe146f-c6df-4bab-a2bf-f558249c3613","name":"International Implementation Developer","longitude":-96.53868367412576,"latitude":32.99962176096917,"photoNum":21},{"id":"b91c210e-5b33-41ac-869f-b14aee1a7faa","name":"Human Response Facilitator","longitude":-81.53168927402294,"latitude":28.689981384113118,"photoNum":112},{"id":"e451f095-a02d-4b85-9cf8-85596881ce9a","name":"Corporate Communications Supervisor","longitude":-87.7541266528035,"latitude":41.841854950138696,"photoNum":88},{"id":"19ab1083-ec33-445f-898f-5b44ef2edf78","name":"Forward Optimization Coordinator","longitude":-81.01383127297356,"latitude":34.92281220622766,"photoNum":117},{"id":"fcec9624-dcaf-4cbb-bf24-39278f5277b5","name":"Customer Group Engineer","longitude":-89.64279059705859,"latitude":39.790750307368604,"photoNum":144},{"id":"388d6902-a588-4990-8756-53938a118d0e","name":"Investor Quality Executive","longitude":-122.66122945756172,"latitude":45.63867083051477,"photoNum":188},{"id":"ba785fc6-abe2-46c1-af60-6a7988c3264f","name":"Internal Identity Manager","longitude":-95.2920277146651,"latitude":29.578119267996186,"photoNum":25},{"id":"c13d5524-3bea-4651-b8bf-454ac659d225","name":"Regional Factors Architect","longitude":-71.15649989033932,"latitude":41.700697535059106,"photoNum":95},{"id":"f6bb7be3-dd2f-436b-9adf-8b8762205a2a","name":"Global Applications Associate","longitude":-70.8975115407892,"latitude":42.50919194462321,"photoNum":122},{"id":"e17b097f-17b2-4f08-9f23-774d87c27e0d","name":"District Security Officer","longitude":-71.1446214789579,"latitude":42.699183197816424,"photoNum":134},{"id":"f5420508-a11b-4786-9b51-f40aab88d423","name":"Regional Security Strategist","longitude":-80.48169336651364,"latitude":25.475743688630985,"photoNum":156},{"id":"338ae2cd-0faf-4713-94c0-57f5aa7f7372","name":"National Functionality Executive","longitude":-102.07926427426486,"latitude":31.993673031933703,"photoNum":115},{"id":"758c32c7-e2ba-40a1-9e6a-7d33349a762b","name":"Dynamic Response Designer","longitude":-79.92759094477918,"latitude":32.789067649354116,"photoNum":190},{"id":"327da4f7-0b02-46d0-b136-e2484b12d664","name":"Central Functionality Coordinator","longitude":-97.14242501775192,"latitude":32.55620093127241,"photoNum":138},{"id":"42551fbc-012c-4519-8d67-8ba0b659ea7a","name":"Legacy Data Specialist","longitude":-90.20090478364074,"latitude":38.63221408269572,"photoNum":78},{"id":"cc322d84-347f-48e6-af4f-a512591b1883","name":"International Optimization Developer","longitude":-81.63150207978043,"latitude":38.34800933867477,"photoNum":152},{"id":"9cde3f9a-1224-4ff0-a7c5-56e76e068dd3","name":"Lead Mobility Strategist","longitude":-71.10704470722419,"latitude":41.89368641150702,"photoNum":154},{"id":"a54980b8-2fda-49af-881f-036f3b3c6106","name":"Future Configuration Assistant","longitude":-81.37443982460672,"latitude":28.661534320402467,"photoNum":147},{"id":"ded78dd0-3050-4fc5-8e20-3d24b3ee4518","name":"Corporate Implementation Analyst","longitude":-77.56545165067172,"latitude":39.11350582760623,"photoNum":47},{"id":"f4d400d1-d415-4548-bca8-f9c3fcf46b80","name":"Dynamic Research Analyst","longitude":-83.47604391826741,"latitude":42.481219834665765,"photoNum":90},{"id":"81d700bb-764a-4370-9cdd-2206a5113512","name":"Investor Division Consultant","longitude":-122.09519839900042,"latitude":37.378436510721095,"photoNum":24},{"id":"e9bfafaa-e625-4501-b4f8-07bbeda468e2","name":"Regional Solutions Planner","longitude":-86.1207193479076,"latitude":39.978975928697075,"photoNum":74},{"id":"3b19b4e6-0746-408e-a33e-e07c7e62caa8","name":"National Optimization Director","longitude":-117.74091758765564,"latitude":34.05325855389054,"photoNum":81},{"id":"670e9bfa-f55a-487a-b01b-0f72ae94e0ec","name":"Lead Quality Associate","longitude":-74.16209487966142,"latitude":40.91391419517531,"photoNum":52},{"id":"50b43493-ef92-4500-a8e9-2270e6340f26","name":"Dynamic Quality Administrator","longitude":-74.0362290874645,"latitude":40.75006042641929,"photoNum":199},{"id":"40f285ce-5349-4472-a51d-9aa33cb71834","name":"Product Paradigm Developer","longitude":-117.3028044854974,"latitude":34.41456083637137,"photoNum":151},{"id":"52d8aa39-9cbe-4839-a501-a9d376917b5c","name":"Dynamic Group Coordinator","longitude":-86.02358061240687,"latitude":39.846686928340176,"photoNum":19},{"id":"3e81455c-0183-4714-ae17-3724405b0ef1","name":"International Program Administrator","longitude":-95.21050687503572,"latitude":29.692099026982575,"photoNum":173},{"id":"53f46723-8d0f-460b-bfcb-922b804c874a","name":"Principal Intranet Executive","longitude":-117.95179264788482,"latitude":34.02102295431466,"photoNum":52},{"id":"c16e6779-4e12-42a9-a26f-ff91dccec760","name":"Customer Accountability Consultant","longitude":-83.1951804302808,"latitude":42.25573303088806,"photoNum":25},{"id":"d0faa77c-2646-4ba8-87a8-04c69f3f6dc4","name":"International Usability Coordinator","longitude":-81.93875905057598,"latitude":28.03239864175784,"photoNum":132},{"id":"bf653864-a53e-4cba-b4fc-943549d591de","name":"Internal Intranet Producer","longitude":-89.39497725774407,"latitude":43.07699919864315,"photoNum":159},{"id":"b4979a98-cfb7-4ecb-9b86-154d2dfb273e","name":"Chief Creative Coordinator","longitude":-111.97233510148692,"latitude":41.22244864962778,"photoNum":16},{"id":"068f1e7d-617a-410a-a95d-06cc55b51f7f","name":"Senior Intranet Strategist","longitude":-104.60922963793513,"latitude":38.270160013674925,"photoNum":82},{"id":"70bc0219-1eb7-4e42-b6a4-74b132f17fb9","name":"Senior Response Representative","longitude":-82.98756783199758,"latitude":39.96336276204684,"photoNum":8},{"id":"73029785-877e-422d-afdd-33f174d947dc","name":"International Creative Designer","longitude":-84.56067389881667,"latitude":39.34485532776748,"photoNum":151},{"id":"38e6a956-a577-4af3-922c-bb425ba87460","name":"Customer Operations Representative","longitude":-92.42788106413485,"latitude":35.09752181535587,"photoNum":174},{"id":"b9874cec-1307-4eb5-a3e4-1daf798fdf5e","name":"National Division Representative","longitude":-121.81404118640415,"latitude":38.007263143688775,"photoNum":115},{"id":"ee3b5105-71b9-41cb-ac6e-7a75f915c673","name":"Regional Marketing Representative","longitude":-93.71045681277292,"latitude":41.575149915188625,"photoNum":153},{"id":"fa94a014-759b-4a4c-985e-5762bd016b79","name":"Human Group Consultant","longitude":-71.04361542574998,"latitude":42.41994509327688,"photoNum":152},{"id":"3144b1e8-cc18-44a2-ab74-48a4e1a8eb69","name":"Dynamic Optimization Liaison","longitude":-74.39476976185779,"latitude":40.621705080335026,"photoNum":94},{"id":"bf57ee7d-59db-46f1-8da0-503318e4eee2","name":"Customer Metrics Orchestrator","longitude":-106.64536633231751,"latitude":35.23289472346555,"photoNum":95},{"id":"95a1c875-1464-422b-832a-edd35c906548","name":"Corporate Operations Liaison","longitude":-89.09217963245283,"latitude":30.367371094923925,"photoNum":85},{"id":"e7c24132-5026-4c89-b2b6-61e523ac151c","name":"Product Configuration Assistant","longitude":-88.55655987492293,"latitude":44.022867244893476,"photoNum":110},{"id":"c56218f1-e3b3-4104-a679-4a8f51d3d30d","name":"Dynamic Markets Liaison","longitude":-121.28603700251438,"latitude":38.706081218276616,"photoNum":145},{"id":"491f1e8d-43a1-4d37-b3ec-4d4f1f77f281","name":"Regional Intranet Facilitator","longitude":-106.5909985297186,"latitude":35.08576974552423,"photoNum":32},{"id":"8b6a2ff6-e35a-46b2-8a11-a011495c4334","name":"Corporate Paradigm Supervisor","longitude":-118.12669561051484,"latitude":33.89273020076832,"photoNum":115},{"id":"c3988f05-3f93-417f-b698-91ee44ce56bb","name":"Global Web Director","longitude":-80.14794734266093,"latitude":25.938918155825586,"photoNum":21},{"id":"a13ff2d7-a145-46d1-a019-37df94c8e90c","name":"Central Paradigm Designer","longitude":-98.12418333329066,"latitude":29.694964619467495,"photoNum":140},{"id":"4faffa50-ab41-4737-90a0-85bf99401dc8","name":"Global Marketing Architect","longitude":-87.83930650243053,"latitude":42.017788915125465,"photoNum":193},{"id":"012490e5-940c-4473-a87e-1acb1230bcb7","name":"Central Integration Facilitator","longitude":-81.10462604870628,"latitude":32.07255122059609,"photoNum":62},{"id":"dddb5d0d-ed94-4a2a-9483-4862b92cf668","name":"Chief Interactions Engineer","longitude":-91.53418830460197,"latitude":41.65373497450025,"photoNum":77},{"id":"18934485-4dd7-42df-a24c-e5d4c6ca5f16","name":"Dynamic Tactics Officer","longitude":-119.34733495349906,"latitude":36.20750396404063,"photoNum":68},{"id":"27dee704-78b0-4d37-ba78-e1f8a2136e4f","name":"Internal Markets Planner","longitude":-122.21034558723767,"latitude":47.680923345490854,"photoNum":81},{"id":"f8bb8d9f-0f17-4266-8f73-6d25486efb10","name":"Product Assurance Planner","longitude":-71.06690739066386,"latitude":42.7658737903221,"photoNum":44},{"id":"517ca3fa-80a0-4a4f-ad92-9c975b6ad18c","name":"Legacy Web Designer","longitude":-72.93653424700761,"latitude":41.67984798083806,"photoNum":127},{"id":"95976cbb-038c-4c40-999d-f4825d91a290","name":"International Tactics Engineer","longitude":-90.52267518299556,"latitude":41.499491529922544,"photoNum":58},{"id":"33d7337b-095f-45c1-9b34-58d89412d6e7","name":"Lead Implementation Orchestrator","longitude":-81.02863243793558,"latitude":34.01544510836221,"photoNum":122},{"id":"cf664f08-57a6-4524-82bf-a00c400e008a","name":"Product Marketing Strategist","longitude":-98.15241815944262,"latitude":26.299947043097344,"photoNum":124},{"id":"43469f1d-4a62-490f-9044-b67a516fecec","name":"Central Solutions Coordinator","longitude":-74.21231358162129,"latitude":40.66170221361629,"photoNum":132},{"id":"13612d01-b8eb-43ec-819b-49c4268227eb","name":"Chief Identity Engineer","longitude":-117.88620781917143,"latitude":34.10019295406075,"photoNum":62},{"id":"588eb8fa-8e21-41dc-a16d-5a28f128ae8f","name":"Product Quality Designer","longitude":-88.16995566869178,"latitude":41.98422604679352,"photoNum":152},{"id":"4b6cd03e-4ced-4dcc-9cdc-7cd0ac759fde","name":"Dynamic Division Architect","longitude":-117.94986029098095,"latitude":34.019953282281975,"photoNum":182},{"id":"21f8d89c-67d1-4f4d-8418-755e1a164244","name":"Human Configuration Architect","longitude":-83.11257727933872,"latitude":40.103906303149515,"photoNum":60},{"id":"7b5c1c11-a375-4770-9bf6-c5162a17b2a3","name":"Corporate Security Director","longitude":-95.23856982017435,"latitude":38.97313162557859,"photoNum":61},{"id":"15c32bc7-bf1d-4702-97f1-da44acf38306","name":"Investor Brand Manager","longitude":-87.48324667503437,"latitude":41.58852557929519,"photoNum":186},{"id":"cc7dd735-c941-4f0c-83d2-283a76e8934e","name":"Product Quality Consultant","longitude":-82.55737040372765,"latitude":35.597779147285046,"photoNum":118},{"id":"43fd1488-e0f8-473d-818d-9715b95ecddb","name":"Global Branding Coordinator","longitude":-91.40894301336249,"latitude":39.94046388521557,"photoNum":58},{"id":"b913f513-e776-4b70-920b-efa2d97787ed","name":"National Interactions Associate","longitude":-122.03130856846735,"latitude":38.24537264713109,"photoNum":28},{"id":"75234797-f962-4210-a1d1-c49004bbf01e","name":"Global Operations Facilitator","longitude":-87.19983831388481,"latitude":30.42694577610006,"photoNum":139},{"id":"fd803569-e4b4-4da7-9948-1bd18a9c51f4","name":"Senior Creative Architect","longitude":-117.9482941178261,"latitude":34.0192932154037,"photoNum":188},{"id":"9d8733e2-9a0d-4f71-828e-a0e93c9e3d71","name":"Dynamic Implementation Representative","longitude":-75.66429064261195,"latitude":41.41104756476492,"photoNum":150},{"id":"a3f53a2b-5324-4ac6-b3b1-e3c3fc239da0","name":"Principal Metrics Representative","longitude":-80.60142382721267,"latitude":35.493556205263104,"photoNum":78},{"id":"3d75d7b4-5467-42a0-b939-6b0f44a22c34","name":"Principal Factors Director","longitude":-91.52561745150996,"latitude":41.64897287193435,"photoNum":11},{"id":"34de8176-61e9-4dc9-9fcb-8c4e7f8282e8","name":"Regional Research Officer","longitude":-122.81753487881105,"latitude":47.03440460339266,"photoNum":81},{"id":"b18b8225-621d-48ba-84cb-9343af647bca","name":"Product Configuration Manager","longitude":-118.50047209431517,"latitude":34.01454546026733,"photoNum":128},{"id":"9e923fa4-844e-4db2-8092-4b80c8c4c7f9","name":"Future Group Producer","longitude":-121.89179971685905,"latitude":37.34263293717356,"photoNum":47},{"id":"30bfd8b5-2df4-4cc1-a592-1fa0f3d5c7cb","name":"Internal Branding Agent","longitude":-117.09206443840958,"latitude":33.130523972396354,"photoNum":28},{"id":"0350d5a1-6e5a-4927-8a2f-dc82bee1177e","name":"Corporate Program Agent","longitude":-78.8650961512219,"latitude":35.04526016970855,"photoNum":76},{"id":"2cf4706a-8d03-4bce-aeec-086ded079163","name":"Chief Research Supervisor","longitude":-117.08380077863251,"latitude":33.12990512488808,"photoNum":143},{"id":"462fa6ce-d3f3-4d2d-a32c-76cd228374f1","name":"National Tactics Facilitator","longitude":-121.176242012778,"latitude":38.67796048437993,"photoNum":10},{"id":"166574c5-a050-48a7-8f47-88b941ec6016","name":"Principal Marketing Designer","longitude":-93.98339435754502,"latitude":44.15730819657805,"photoNum":117},{"id":"aca516d2-2f78-4d61-875b-9be04e3b0e2c","name":"Corporate Paradigm Director","longitude":-81.53249733679553,"latitude":28.70911233155408,"photoNum":36},{"id":"c953b40c-06a6-487c-b37d-8a7ccabdc796","name":"Human Creative Producer","longitude":-79.82829239496027,"latitude":32.83240429105537,"photoNum":118},{"id":"0ab4f5fc-3568-4e2a-a2de-e7a6a1835d95","name":"Human Marketing Director","longitude":-83.22053651637407,"latitude":42.47089160815584,"photoNum":168},{"id":"3a69eb9b-fef6-4f89-ae9d-cc40677d2f5a","name":"Direct Implementation Associate","longitude":-97.99296436235602,"latitude":26.15281281983708,"photoNum":80},{"id":"520f11e8-e70d-49c7-8b7a-fe7c1e94b7bb","name":"International Paradigm Consultant","longitude":-118.04002962142573,"latitude":34.13275270699682,"photoNum":8},{"id":"c0cd8737-6eaa-457b-8010-d10dac7f597c","name":"Product Markets Specialist","longitude":-122.2688879657241,"latitude":37.863380052642306,"photoNum":175},{"id":"27eabf15-e243-47e6-92e4-b973dc84cef8","name":"Chief Marketing Analyst","longitude":-100.43117789770281,"latitude":31.471863794415643,"photoNum":58},{"id":"72eeeeb7-744d-4ced-a816-5fa9f4dee2e0","name":"Lead Web Engineer","longitude":-96.73703556884936,"latitude":43.54246265585607,"photoNum":115},{"id":"ec3fad54-6111-4c9f-8f59-e5435b2b3d39","name":"Internal Intranet Analyst","longitude":-94.79535381968941,"latitude":29.30144967399014,"photoNum":122},{"id":"8d218f39-6626-4c9c-96f1-e026979ce976","name":"Senior Creative Officer","longitude":-86.57094270202288,"latitude":34.721336008527885,"photoNum":58},{"id":"fb68828c-5cc4-4d11-999b-fdb2cf673c1f","name":"Future Data Consultant","longitude":-120.85985757750393,"latitude":37.48945380364532,"photoNum":154},{"id":"7672a62e-963b-400e-9127-64212cf5026b","name":"Internal Branding Assistant","longitude":-122.26370327785446,"latitude":37.872539977557,"photoNum":151},{"id":"05ca25fb-d033-49fe-8669-d576bbc09fed","name":"District Accountability Director","longitude":-81.54192418424077,"latitude":28.570058892922386,"photoNum":119},{"id":"4a9feea1-ecbe-4480-9e5f-9f2ec3c5ea5b","name":"Central Communications Agent","longitude":-91.65803218214131,"latitude":41.9854768371246,"photoNum":109},{"id":"8d815da9-f405-4371-b61a-8ecf4c78c33a","name":"Human Intranet Administrator","longitude":-80.81445856318317,"latitude":28.627207269098005,"photoNum":132},{"id":"27694ea4-10e6-4e2f-b6eb-d1ab14a31e8f","name":"Corporate Group Consultant","longitude":-122.32892517714515,"latitude":47.473691916530676,"photoNum":124},{"id":"beca5ce2-e034-4ad3-a66c-4b25a8c2c826","name":"Forward Accounts Analyst","longitude":-77.72160090007645,"latitude":39.63616407865649,"photoNum":51},{"id":"f1dc83ee-25d6-4fcc-a9a1-5122773d20d4","name":"Product Brand Technician","longitude":-77.61595239596267,"latitude":43.17288289047403,"photoNum":90},{"id":"6e8ca012-b32c-40eb-bf63-94f7677951f6","name":"Product Quality Facilitator","longitude":-119.67957504913556,"latitude":34.42507295895973,"photoNum":165},{"id":"955300a8-7e86-4534-a43c-8e077a05460c","name":"Future Identity Planner","longitude":-92.10594926542865,"latitude":32.50106389751161,"photoNum":62},{"id":"d176d0ee-f2d2-457e-a76c-de2fdd7345bc","name":"Corporate Optimization Agent","longitude":-86.8162472115713,"latitude":33.39984153503925,"photoNum":117},{"id":"58c4a4cd-7157-4a0b-afc7-e0f90f0ed491","name":"Future Intranet Agent","longitude":-81.59270068361309,"latitude":28.557921779518367,"photoNum":81},{"id":"7dc1dc33-bea5-40c1-bf41-167a74fefe90","name":"Dynamic Assurance Architect","longitude":-74.03075114248713,"latitude":40.754576855844064,"photoNum":105},{"id":"78d8efc4-2f15-4688-8815-6730138df994","name":"Chief Security Producer","longitude":-91.53516367816655,"latitude":41.67062074338176,"photoNum":126},{"id":"63ad6787-c323-44e7-a3af-0c2d8ca60b44","name":"Regional Creative Developer","longitude":-120.06105186232867,"latitude":36.968503982760346,"photoNum":61},{"id":"a0010b03-f07d-4ee0-9ab1-8bbc05d7bfc5","name":"District Paradigm Liaison","longitude":-87.2197775839033,"latitude":30.418127678938863,"photoNum":108},{"id":"abd351ce-c86f-4449-bbdf-ca013605855f","name":"Direct Quality Officer","longitude":-84.10354891495649,"latitude":40.73971778837665,"photoNum":134},{"id":"30efc62e-468d-4b4a-a780-650bfe0f6145","name":"Internal Brand Supervisor","longitude":-86.14220885779832,"latitude":41.66260390162953,"photoNum":167},{"id":"c6605762-0d97-4b2f-9416-eb2d28d0eeef","name":"Principal Research Agent","longitude":-79.04247905209769,"latitude":43.10507465677346,"photoNum":178},{"id":"05ea1111-7c8e-4e4b-bc03-4b917b50cb93","name":"Direct Quality Architect","longitude":-122.90060698989726,"latitude":47.05003506544184,"photoNum":86},{"id":"d8e941d9-5c70-4cab-aa77-47588415e629","name":"Global Accounts Agent","longitude":-117.36167736227924,"latitude":34.099774358275,"photoNum":91},{"id":"e4e5ebe1-cd8c-4a4f-9c95-35a79b6c6455","name":"Corporate Configuration Designer","longitude":-82.54838370163276,"latitude":27.328383930454848,"photoNum":99},{"id":"cd2bc7a0-4c3f-4d6e-b879-2f3584f88852","name":"International Tactics Engineer","longitude":-93.1733737941077,"latitude":44.7990357142989,"photoNum":80},{"id":"7a1c93f6-01b8-4ae8-8f8d-8532101c975a","name":"Dynamic Paradigm Associate","longitude":-117.0770601243936,"latitude":32.62911499664944,"photoNum":139},{"id":"f15c56a3-80ca-401d-afc3-2b1cb53e95a9","name":"Dynamic Response Planner","longitude":-97.04464491532241,"latitude":47.92701619920037,"photoNum":84},{"id":"e63384f2-72d3-4243-bafc-be38b9477c41","name":"Global Usability Consultant","longitude":-157.84786958362236,"latitude":21.305340871533076,"photoNum":92},{"id":"7b4b0f00-d660-4ecf-a720-3136c97b2536","name":"Regional Tactics Coordinator","longitude":-89.52095689074537,"latitude":37.30751622810784,"photoNum":19},{"id":"2ba216bc-99a7-4197-b9a5-3b483bd08785","name":"Principal Intranet Facilitator","longitude":-88.16623774313524,"latitude":41.73712614973824,"photoNum":81},{"id":"16c5ca2b-c540-47b0-ab7b-14e4e21059ce","name":"Legacy Optimization Coordinator","longitude":-71.1186762667063,"latitude":42.385819755869214,"photoNum":176},{"id":"a9620cd6-2d39-4161-a5a3-c71fb3276e21","name":"District Accounts Architect","longitude":-87.78833203871773,"latitude":42.06929462666369,"photoNum":134},{"id":"62dab110-841c-412f-a94e-17b355fd8f2d","name":"Future Tactics Coordinator","longitude":-76.76061254084283,"latitude":39.00983004316307,"photoNum":192},{"id":"8561f0c8-264d-41c6-91a9-a7939f0577d7","name":"Lead Operations Analyst","longitude":-105.0132539308704,"latitude":39.624470642626335,"photoNum":152},{"id":"924dff3d-f84d-4076-b03b-bbf7cb8d0932","name":"Senior Web Analyst","longitude":-80.04404147729593,"latitude":32.98236116759116,"photoNum":92},{"id":"c12901c8-ba5c-403c-aede-852ba86e319a","name":"Direct Mobility Officer","longitude":-93.21964873897343,"latitude":44.74614454892623,"photoNum":60},{"id":"b37c99cb-3835-4140-964a-3c529f9ad843","name":"Principal Assurance Coordinator","longitude":-122.9872537254031,"latitude":45.52149859750637,"photoNum":191},{"id":"914ca8f4-320c-41e9-b462-5861a9007af0","name":"Future Identity Liaison","longitude":-105.92646415235845,"latitude":35.68225324452894,"photoNum":108},{"id":"ab369bf2-325a-4202-93e8-ac0fc7838123","name":"Human Marketing Liaison","longitude":-77.19545017188932,"latitude":39.13571131857962,"photoNum":196},{"id":"8aad3465-36b3-40ea-a76c-a2d2330c96a2","name":"Chief Paradigm Engineer","longitude":-117.59979076739353,"latitude":33.62421511248453,"photoNum":103},{"id":"416228c3-e41f-4dd4-b7e1-93c4ab4cf232","name":"Lead Web Agent","longitude":-112.47576500231338,"latitude":34.538379576322484,"photoNum":176},{"id":"fd7738fe-3a62-4907-bf04-9505e5800223","name":"Product Data Analyst","longitude":-119.71997019591828,"latitude":36.82520865676551,"photoNum":38},{"id":"74f17326-495a-4b14-90b9-21e280069739","name":"Dynamic Applications Assistant","longitude":-82.52022152055184,"latitude":40.765671802101366,"photoNum":128},{"id":"1c615e91-d1a2-40a5-9ef2-659411412625","name":"Corporate Brand Manager","longitude":-118.03536833927325,"latitude":33.98097285758775,"photoNum":9},{"id":"779cdad6-a921-4b81-86e6-f40534de54d7","name":"Customer Directives Liaison","longitude":-122.5180294874566,"latitude":37.97479236223117,"photoNum":135},{"id":"1888b705-2206-465c-933c-e93d158ba4c8","name":"Internal Mobility Coordinator","longitude":-88.11013623602548,"latitude":42.96836293889072,"photoNum":19},{"id":"079222b1-ceff-4a7e-a957-207b3cb7440f","name":"Legacy Factors Planner","longitude":-122.69338592694567,"latitude":38.33074406174519,"photoNum":97},{"id":"7530c1fd-acf7-4a98-b945-0f9fc9ae74c9","name":"Product Creative Administrator","longitude":-95.38103316206639,"latitude":29.745542078814122,"photoNum":134},{"id":"116bc363-2c57-4932-bffd-d670e77f4cf0","name":"Dynamic Web Supervisor","longitude":-121.93172830899078,"latitude":37.69267687055775,"photoNum":165},{"id":"e30d5fa7-5c6d-4475-aa2e-38811ff14a4f","name":"Customer Metrics Administrator","longitude":-93.7424476556044,"latitude":32.53616845101672,"photoNum":93},{"id":"4ab26342-7be7-4dc6-b310-6e63ba4aa65b","name":"Chief Creative Engineer","longitude":-121.89867339583111,"latitude":37.431364335594125,"photoNum":122},{"id":"e5035807-1106-4e7c-ae09-21f328d3c7ba","name":"Legacy Assurance Officer","longitude":-74.01625308659544,"latitude":40.787800257125255,"photoNum":21},{"id":"372654f4-a76d-4399-b7ad-c62964fad258","name":"Lead Implementation Manager","longitude":-78.46018552032638,"latitude":38.0345003425755,"photoNum":50},{"id":"5201d02b-f639-483a-b7ad-ab3e977aeb5a","name":"Human Optimization Engineer","longitude":-104.75027015711822,"latitude":39.53258161010629,"photoNum":134},{"id":"d4df6d92-2c46-4f53-abac-3c303dee4da7","name":"Direct Quality Supervisor","longitude":-97.92885857240248,"latitude":38.06110647610523,"photoNum":12},{"id":"698915a7-9159-4a3b-9846-a822d265d371","name":"District Accountability Manager","longitude":-95.36936698422659,"latitude":29.759572543768943,"photoNum":143},{"id":"04aaeda3-b943-4df9-acc2-9e4b378ec384","name":"Central Intranet Liaison","longitude":-118.13274284569297,"latitude":34.68406913552654,"photoNum":76},{"id":"943e347f-e4ef-431a-8447-4551c75a3265","name":"Direct Applications Supervisor","longitude":-123.08685734461818,"latitude":44.05106314956161,"photoNum":133},{"id":"4a52e849-5f92-462f-ac2e-760f1857c53a","name":"International Infrastructure Associate","longitude":-79.82948917065465,"latitude":32.837843457659325,"photoNum":75},{"id":"24e27aed-ecf8-4791-85c7-92181e93e1c8","name":"Forward Paradigm Representative","longitude":-101.85010770153627,"latitude":35.22950362059736,"photoNum":114},{"id":"a35d0d7a-4b19-45dd-bfe4-8b87fc75cad1","name":"Central Assurance Coordinator","longitude":-80.22866746398734,"latitude":26.21280300290981,"photoNum":90},{"id":"dcf0b056-7b60-4125-b7af-4596555ac4e8","name":"Dynamic Operations Assistant","longitude":-118.03203903616088,"latitude":33.975560040026046,"photoNum":180},{"id":"58d1d4d2-68c2-4051-a001-659e24d2f78e","name":"Customer Interactions Administrator","longitude":-105.02413847845963,"latitude":39.604061138965406,"photoNum":79},{"id":"5631670e-5b48-447d-89b9-ddc2d8a8aaf6","name":"Internal Markets Associate","longitude":-122.0581667220514,"latitude":37.89546469221961,"photoNum":115},{"id":"619a137f-1071-4ed8-b223-f50665057c84","name":"Investor Mobility Director","longitude":-83.40421171625587,"latitude":42.322817585486185,"photoNum":141},{"id":"b6c8b941-49b3-4a68-9839-e1ddaaa9d196","name":"Dynamic Directives Executive","longitude":-83.39213209496779,"latitude":42.32415485561639,"photoNum":51},{"id":"206850e1-6a4c-4d7b-9795-44485ab8eb66","name":"Human Security Coordinator","longitude":-80.81589272967983,"latitude":41.23682208225615,"photoNum":190},{"id":"95338ee2-28ab-46b8-8c9d-8f48cfb3edd9","name":"Internal Directives Manager","longitude":-105.02227931261416,"latitude":39.61093797390707,"photoNum":38},{"id":"70879d67-fff8-4e0d-9d28-b8b79ee48b68","name":"Global Interactions Director","longitude":-76.72572309190912,"latitude":39.975107413523,"photoNum":136},{"id":"c08585da-239b-48fe-b174-289967e786d2","name":"Dynamic Applications Agent","longitude":-86.25219026052264,"latitude":43.21787061341868,"photoNum":115},{"id":"64eafa20-ad6c-4a16-830f-5efc7f8db399","name":"Direct Mobility Developer","longitude":-80.36290152297784,"latitude":25.82392500348655,"photoNum":39},{"id":"d2f362d1-8258-4a89-8e3c-6f786f809e81","name":"Regional Functionality Designer","longitude":-71.01451937992681,"latitude":42.40939597423503,"photoNum":28},{"id":"574ce711-2382-4680-a1f4-4d945e800023","name":"Product Program Associate","longitude":-86.40477889548953,"latitude":35.843607919420975,"photoNum":199},{"id":"33d682b5-607b-4058-8624-92be944a2ccf","name":"Product Paradigm Director","longitude":-93.22565372032392,"latitude":30.220988427391237,"photoNum":53},{"id":"72fee49c-73be-475d-b7b3-a33781299343","name":"Dynamic Quality Facilitator","longitude":-84.49527566917004,"latitude":42.73238165038695,"photoNum":97},{"id":"6ce50f00-0f09-4581-b18e-f7f8f9e2236d","name":"Investor Assurance Associate","longitude":-73.89102645687876,"latitude":40.93933792312083,"photoNum":6},{"id":"67fb3611-ae2d-4856-8896-98e587905fc9","name":"Product Marketing Analyst","longitude":-112.04714300668434,"latitude":33.0578362818729,"photoNum":96},{"id":"fe933143-c746-4695-bfb0-5b70af21b747","name":"Legacy Usability Coordinator","longitude":-86.57374421721192,"latitude":34.72400086674067,"photoNum":70},{"id":"af0cb9d4-a871-4b6c-9599-275131d5cc0f","name":"Lead Security Executive","longitude":-97.94088126218367,"latitude":29.88320775877028,"photoNum":167},{"id":"46eee266-3232-4fa9-8b6c-6274312b66e7","name":"Customer Factors Agent","longitude":-80.08175438843517,"latitude":26.45580871936502,"photoNum":14},{"id":"09cb34b7-173c-45ce-a5c4-0c0a2ab812be","name":"Senior Implementation Orchestrator","longitude":-74.15567047374697,"latitude":40.77257115206831,"photoNum":139},{"id":"dc77bfe9-5ff9-4d4b-9c64-017d69fa317e","name":"Investor Implementation Planner","longitude":-102.07491793774733,"latitude":31.990835611222337,"photoNum":41},{"id":"4c48d362-2f44-494a-aabc-d048ad682579","name":"Human Directives Executive","longitude":-101.29187520895681,"latitude":48.23145299877597,"photoNum":145},{"id":"bec53352-8bbf-4d22-9104-4c0f69ffbba9","name":"Human Optimization Associate","longitude":-117.14859506824894,"latitude":33.49256731790418,"photoNum":101},{"id":"42841924-d9df-4c37-aea5-05e055c7d0d9","name":"Central Mobility Associate","longitude":-92.4330810203245,"latitude":42.5337409447031,"photoNum":78},{"id":"7fa6e2ed-b711-4d58-9393-33f13db84240","name":"Senior Interactions Technician","longitude":-92.45980645832896,"latitude":42.539258813921684,"photoNum":169},{"id":"d35b3037-acaa-4613-8964-6d8e6541faae","name":"Investor Research Planner","longitude":-93.72238653373108,"latitude":32.53133821902185,"photoNum":79},{"id":"f4e4927b-6828-4295-b04f-0533f9d07037","name":"Principal Configuration Specialist","longitude":-97.32756480613494,"latitude":32.54879530701832,"photoNum":195},{"id":"5bd119e9-043c-471d-a21d-0dff2a9849a4","name":"Direct Infrastructure Orchestrator","longitude":-119.76590707799994,"latitude":39.16961222315242,"photoNum":190},{"id":"36bd06d5-da70-4b15-8a99-9c3fb737e9ea","name":"International Assurance Associate","longitude":-122.46956016027576,"latitude":48.749060985632426,"photoNum":41},{"id":"9f8ccfed-ea85-4f44-9548-c969ca3b5dc9","name":"Investor Integration Supervisor","longitude":-80.84865734855873,"latitude":35.22538376929761,"photoNum":91},{"id":"2fa593ec-e280-4171-8a32-5da52a3d1994","name":"Senior Integration Technician","longitude":-105.10834975537699,"latitude":40.15461696320585,"photoNum":32},{"id":"1822fe91-69bf-4cbd-9e81-e889c5e6c68c","name":"Central Identity Designer","longitude":-82.64478045017154,"latitude":27.764955509027047,"photoNum":65},{"id":"8470385c-f818-412e-96d4-375bf3058a73","name":"Dynamic Identity Coordinator","longitude":-80.0818506558611,"latitude":42.12356326236066,"photoNum":90},{"id":"69e8fd6c-3bae-48d0-ab20-2f5eaab47e36","name":"District Security Coordinator","longitude":-117.30706152054091,"latitude":34.07967087342033,"photoNum":180},{"id":"f7facbc1-c5e8-48c1-95ed-02310f76759d","name":"Legacy Communications Designer","longitude":-83.94732168964055,"latitude":43.42091411931279,"photoNum":92},{"id":"af1f4b8c-894d-475a-a752-6019d03c12ee","name":"Investor Optimization Liaison","longitude":-114.32250876974888,"latitude":34.48384404349564,"photoNum":193},{"id":"48c16fc2-226b-4318-b241-843c853d976d","name":"Dynamic Assurance Orchestrator","longitude":-77.49339927133087,"latitude":38.74701666473382,"photoNum":177},{"id":"0cb09edb-7967-40cc-b048-41f5617a8f55","name":"District Communications Architect","longitude":-98.18545216019277,"latitude":26.192034223840015,"photoNum":51},{"id":"0d261387-5e59-458c-97a6-68c0224dcc50","name":"Chief Paradigm Orchestrator","longitude":-91.48196550596901,"latitude":44.80484445815451,"photoNum":177},{"id":"2d24d31f-c93c-4310-a75e-a7f43cd8f414","name":"Product Security Strategist","longitude":-96.68912933041787,"latitude":40.83813261157138,"photoNum":69},{"id":"87ae82aa-8a48-4dfe-82ca-5afb6c65bd69","name":"Legacy Solutions Specialist","longitude":-71.05289119471433,"latitude":42.42023191714587,"photoNum":72},{"id":"0745beb6-b8d6-4083-9c68-31e6dc8f84f9","name":"Dynamic Program Planner","longitude":-87.76604429767036,"latitude":41.842312067791845,"photoNum":142},{"id":"eba4e6bf-7a8e-4001-8972-c135aa250091","name":"National Program Coordinator","longitude":-96.62173458975536,"latitude":33.197219457522735,"photoNum":97},{"id":"7adf11a2-1285-4e08-ab63-ad9c56fb789b","name":"Legacy Communications Supervisor","longitude":-96.72184719612375,"latitude":43.54245462168789,"photoNum":13},{"id":"0684ce8d-a531-4fde-bb3c-e523cebf62f5","name":"International Division Orchestrator","longitude":-71.2258254248627,"latitude":42.37434949189802,"photoNum":38},{"id":"fb4047a3-34dd-4e07-bc88-9a6910240007","name":"Dynamic Markets Director","longitude":-91.52063274606314,"latitude":41.66603667699521,"photoNum":141},{"id":"759c9399-7602-4d11-a2b2-c3b6afe4c1ff","name":"Principal Functionality Designer","longitude":-117.92423235420341,"latitude":33.62035337593362,"photoNum":113},{"id":"0c6188f7-3dac-47d0-99b9-570a7e8b6448","name":"Lead Configuration Consultant","longitude":-70.88526924687073,"latitude":42.54870689323088,"photoNum":186},{"id":"fea229ca-9c8b-424b-b907-bdd5d1f8b126","name":"Customer Identity Liaison","longitude":-105.93921340870764,"latitude":35.6899812944341,"photoNum":122},{"id":"19d3e85b-568f-418a-832f-b404fff2d02d","name":"Future Factors Liaison","longitude":-87.36116657053981,"latitude":41.60539964287787,"photoNum":22},{"id":"354384c7-42a2-492d-a55f-3736eb69a437","name":"Direct Division Technician","longitude":-117.39305859885519,"latitude":33.955056189934105,"photoNum":28},{"id":"e9b2205f-a751-463b-bc49-aae921215419","name":"Senior Integration Manager","longitude":-119.03551334459803,"latitude":34.212360803940506,"photoNum":144},{"id":"de94e21b-e47b-43a5-be53-4582dbd71c11","name":"Chief Interactions Administrator","longitude":-117.33027421327262,"latitude":33.66440380760669,"photoNum":86},{"id":"ea4ef328-37a0-4034-9607-908cc1dfe07e","name":"Internal Configuration Developer","longitude":-93.34660349213578,"latitude":45.09213481519352,"photoNum":87},{"id":"9d2603e5-ef44-47ef-99a0-da2f2371eb9d","name":"Central Accounts Strategist","longitude":-97.94104065395862,"latitude":29.885039684988186,"photoNum":13},{"id":"8567a70a-4654-4977-9545-1ea6553ade2e","name":"Investor Usability Assistant","longitude":-85.58125295265404,"latitude":42.19929434794601,"photoNum":70},{"id":"50c7847a-f365-4010-a533-6ae2b3bae290","name":"Global Intranet Liaison","longitude":-74.19782833685576,"latitude":40.65390685742148,"photoNum":172},{"id":"147a5aa4-e9c5-4b97-b7de-966514a43868","name":"Future Response Associate","longitude":-118.13376115518986,"latitude":33.9396008157501,"photoNum":157},{"id":"e5b00c5a-638f-4b52-afde-d74979bb29b3","name":"International Functionality Orchestrator","longitude":-78.8816373062424,"latitude":38.43541628343121,"photoNum":29},{"id":"764b6231-a422-496b-9a4d-58cbc38f3dcc","name":"Internal Quality Executive","longitude":-93.62216467981114,"latitude":42.02468656291547,"photoNum":4},{"id":"be374c90-8b55-4a00-8ba5-d3b0ad72bb72","name":"Regional Quality Developer","longitude":-83.17855225841834,"latitude":42.265919731660595,"photoNum":195},{"id":"81cd0704-691d-495b-a71e-88d228d37a04","name":"Investor Brand Representative","longitude":-83.68854713871809,"latitude":43.02240369063113,"photoNum":12},{"id":"51fd0347-5edb-4711-a4fc-0beb29187d69","name":"Dynamic Marketing Engineer","longitude":-119.71173759251616,"latitude":36.82419063478518,"photoNum":132},{"id":"1811ccfa-d161-4af1-8408-53333fd0cbe1","name":"Lead Factors Technician","longitude":-76.30745559352658,"latitude":40.03859453891499,"photoNum":118},{"id":"dca9d314-e763-41c9-8609-5136274025b9","name":"Global Markets Agent","longitude":-94.06444955737186,"latitude":33.42962666130358,"photoNum":22},{"id":"41abcfcb-8f2d-4d80-aa6a-f44e2473bc8c","name":"Direct Brand Director","longitude":-84.10297371261197,"latitude":40.748688615791664,"photoNum":12},{"id":"33d8e424-92f6-4132-a59a-f426480701f7","name":"Principal Data Designer","longitude":-78.38908163028918,"latitude":40.519562102323384,"photoNum":89},{"id":"7a35fbe2-b4b8-4bf1-813f-f82178b6b6aa","name":"Product Intranet Consultant","longitude":-122.2370451995285,"latitude":37.486031883370316,"photoNum":35},{"id":"18ad3f38-d21d-4d72-abe9-61c76a5f4a5a","name":"Future Marketing Agent","longitude":-111.93598962318026,"latitude":40.61941960335183,"photoNum":125},{"id":"7e1e2b4a-3124-48b4-aa2b-173918e2b5c0","name":"Principal Functionality Developer","longitude":-77.55591133574103,"latitude":39.110475871903404,"photoNum":163},{"id":"9934e6c0-6cff-49f2-a30e-52d07a1a6b53","name":"Product Solutions Planner","longitude":-121.23595253262556,"latitude":38.80443498246574,"photoNum":43},{"id":"8be1d779-61ec-4e3e-aeb1-599fab2f7288","name":"District Data Technician","longitude":-121.67898958293375,"latitude":37.94176972630408,"photoNum":159},{"id":"9f43da7c-d8eb-4bcd-bb16-e30be25679bd","name":"Senior Implementation Producer","longitude":-87.78661261602281,"latitude":42.710519039131185,"photoNum":172},{"id":"38be8166-eedc-4f58-9589-7b2988c6413e","name":"Future Assurance Agent","longitude":-114.52786325025806,"latitude":35.13855083827053,"photoNum":186},{"id":"26a0d4f7-1900-4cf5-9a44-d0a428c154d4","name":"Future Infrastructure Director","longitude":-90.50241741867251,"latitude":41.5127691482979,"photoNum":163},{"id":"d8570235-4965-482a-9b13-0aa416eadb27","name":"Chief Tactics Engineer","longitude":-117.94562188434367,"latitude":33.776508527023026,"photoNum":50},{"id":"080815e5-4063-4bba-895d-1f0ea4586207","name":"Dynamic Implementation Designer","longitude":-73.77860036629141,"latitude":40.91405539900946,"photoNum":8},{"id":"959c94ed-226d-400e-a921-2484fdda2994","name":"Principal Usability Manager","longitude":-85.12172518845944,"latitude":41.0855632837916,"photoNum":173},{"id":"0e94f882-89cf-46bc-89ae-42dea37e0f5b","name":"Investor Response Manager","longitude":-81.36365577116845,"latitude":28.665608467365487,"photoNum":189},{"id":"8d8fab05-1a1f-46bc-8341-9e11264da002","name":"Principal Intranet Planner","longitude":-86.51783290830355,"latitude":39.163705451147685,"photoNum":141},{"id":"c714c020-8cdb-4556-a7dc-13767876b635","name":"Human Communications Facilitator","longitude":-121.54626136320024,"latitude":38.5733762462721,"photoNum":55},{"id":"fdf0f474-58b8-42bf-bd40-c4ccae3a3d2d","name":"Dynamic Group Liaison","longitude":-123.11217632650221,"latitude":44.62428157783094,"photoNum":25},{"id":"b21f23d4-a5f7-4114-800b-27b159f015f5","name":"Corporate Operations Planner","longitude":-122.75663055474934,"latitude":45.417060732618694,"photoNum":15},{"id":"be5013d0-d2c1-4d07-ab36-b3abffca8987","name":"Human Creative Facilitator","longitude":-70.94931892077102,"latitude":42.46672637225199,"photoNum":111},{"id":"b80f86d7-9498-48a9-b9e0-2742434a5637","name":"Global Creative Specialist","longitude":-77.79074793578513,"latitude":35.93024861200103,"photoNum":62},{"id":"63f6c8e2-175d-4a45-8374-fb4ed92e0b0c","name":"International Communications Engineer","longitude":-97.2307050069902,"latitude":32.939089003827455,"photoNum":180},{"id":"6e57e09d-b6c7-487f-a0e9-82d0748a96ba","name":"Product Mobility Associate","longitude":-70.9092956006715,"latitude":42.51198728994214,"photoNum":133},{"id":"4f2e6f2b-4d7b-40ec-b84b-9d81d5343492","name":"International Response Manager","longitude":-119.1862508145029,"latitude":34.1942026810335,"photoNum":21},{"id":"f0b15c03-7511-4291-96b4-6603dc49dbef","name":"Chief Intranet Analyst","longitude":-79.93847835473736,"latitude":32.77926729416975,"photoNum":59},{"id":"fec6f070-0cf5-44fb-bb05-15fbe883b8a4","name":"Global Tactics Specialist","longitude":-121.22873665289524,"latitude":38.80008929059966,"photoNum":122},{"id":"59e29c08-b5d6-40d0-97db-4c056c0b4293","name":"Dynamic Usability Architect","longitude":-74.16264669645722,"latitude":40.76733976127631,"photoNum":195},{"id":"15729fed-0bb0-4163-b2ac-9cd828ce7706","name":"Senior Assurance Liaison","longitude":-157.8460724123122,"latitude":21.297445438112344,"photoNum":104},{"id":"dc71f612-0cb4-49ae-aee8-364ca2a99068","name":"Legacy Tactics Director","longitude":-76.8887064798194,"latitude":40.28581282198157,"photoNum":50},{"id":"79d9f744-01eb-4b5c-97d4-a49a5b6115f1","name":"Future Metrics Administrator","longitude":-116.54479291464241,"latitude":33.835178306166945,"photoNum":11},{"id":"35f3c49a-88ab-49a8-ae60-0808cf6c91d6","name":"Principal Group Developer","longitude":-119.24584140049893,"latitude":35.76822840202733,"photoNum":9},{"id":"38316f2c-5383-4413-9117-ccdf7fad157e","name":"Investor Response Architect","longitude":-78.86266023680145,"latitude":38.45386191022419,"photoNum":168},{"id":"7dc586d1-e39c-4ee1-ae7c-febb3790d1c9","name":"Internal Usability Assistant","longitude":-117.95150531508943,"latitude":33.70888174765755,"photoNum":85},{"id":"3c31b26f-c181-4a1f-beb9-d28491c7e8e0","name":"International Configuration Assistant","longitude":-81.4142485116314,"latitude":28.295314896941022,"photoNum":174},{"id":"62f429cc-d047-4afd-80ae-1e43375be655","name":"Central Optimization Engineer","longitude":-97.13659531111978,"latitude":32.848604295425794,"photoNum":163},{"id":"d42947d9-4268-451e-a1c8-8e4cba9c2824","name":"Dynamic Response Architect","longitude":-122.13312985992434,"latitude":38.02088693398328,"photoNum":119},{"id":"f534fb0f-76e7-4cc5-a53a-f101843f0485","name":"Legacy Configuration Strategist","longitude":-92.18210688808864,"latitude":38.571717397119116,"photoNum":46},{"id":"2a16bf83-4cf9-4caa-8ee0-b6f90b01d4a3","name":"Senior Applications Facilitator","longitude":-84.3824002076691,"latitude":33.931663346524914,"photoNum":27},{"id":"6a642bdd-50ad-41e8-86f4-2f156bf02892","name":"Investor Factors Planner","longitude":-97.22825395906756,"latitude":32.83506731535695,"photoNum":72},{"id":"fe2af0dd-2bca-43dc-8f4b-07144d34679d","name":"Corporate Accounts Technician","longitude":-114.61378813449892,"latitude":32.69659581678962,"photoNum":182},{"id":"c7b10f10-111b-4656-9a6b-06fc8cc8afc8","name":"Direct Applications Assistant","longitude":-71.43879016086305,"latitude":43.00815919865648,"photoNum":136},{"id":"c2f19afa-748d-47d6-9842-d6b367bd99d2","name":"Human Accountability Representative","longitude":-88.45971422413658,"latitude":43.76510973253972,"photoNum":104},{"id":"22a1f7a1-da15-414f-a10f-533f55d5b0f3","name":"Legacy Division Developer","longitude":-122.05016990647351,"latitude":37.32297084233211,"photoNum":67},{"id":"e76bbc5c-82a3-4df8-b448-2d8b84ca3075","name":"Future Functionality Consultant","longitude":-93.17078523813973,"latitude":44.821804944658886,"photoNum":133},{"id":"18748f76-7cb1-467c-847a-ca7065a7583b","name":"Internal Applications Architect","longitude":-87.72584577035161,"latitude":42.03936195771518,"photoNum":47},{"id":"c10b7901-f16d-4038-9881-38ae5ee1265c","name":"International Research Coordinator","longitude":-74.02507748275735,"latitude":40.745749823874185,"photoNum":52},{"id":"f7a20207-47bf-4cf3-bbbe-af8a87aaae92","name":"Human Accounts Strategist","longitude":-88.15778773298143,"latitude":41.75217725339586,"photoNum":169},{"id":"20350784-c3d4-44e9-b297-5cc42f38f0d2","name":"Investor Marketing Technician","longitude":-71.40001311828934,"latitude":41.88707851610035,"photoNum":154},{"id":"82be83aa-294b-474b-9339-6427fcabbca0","name":"National Interactions Representative","longitude":-111.7919715167298,"latitude":33.35043643424989,"photoNum":1},{"id":"f60f4c19-d201-4c6b-8226-bbbe59956f55","name":"Human Assurance Architect","longitude":-72.07487334726022,"latitude":41.52254632477846,"photoNum":67},{"id":"765db811-9c7b-48ed-b3a8-c9231de77c42","name":"Dynamic Functionality Engineer","longitude":-97.3352046441459,"latitude":37.68868905068259,"photoNum":132},{"id":"d1d272e5-4ee9-463e-b5cb-7751f252bf5b","name":"Dynamic Functionality Producer","longitude":-94.90531979127445,"latitude":29.385106191556986,"photoNum":65},{"id":"12776512-7660-491f-9e16-baa96c91661f","name":"Forward Accountability Strategist","longitude":-118.10991070694627,"latitude":34.07898200631396,"photoNum":15},{"id":"f03e23ee-b788-43e3-a9fd-29b92ceec9f4","name":"National Optimization Manager","longitude":-93.43959246874488,"latitude":45.004830675071204,"photoNum":78},{"id":"3ab1b259-835c-416e-96c6-ee2659e7e4b4","name":"Senior Marketing Executive","longitude":-122.27253572517901,"latitude":37.80009222889096,"photoNum":175},{"id":"78ea7474-da4d-46dd-a563-a47b354a4555","name":"Investor Communications Coordinator","longitude":-74.16928240975636,"latitude":40.919047590459904,"photoNum":148},{"id":"c9727a72-1ac1-46e7-a3ec-e94aeb97caf4","name":"Customer Group Facilitator","longitude":-84.56507496105803,"latitude":39.33888982260877,"photoNum":98},{"id":"0dc5d92b-309d-449d-817b-1288d2101a3d","name":"Senior Marketing Developer","longitude":-97.13894253351418,"latitude":32.83693767820431,"photoNum":188},{"id":"f69f29bb-b7c0-495f-81e8-d6cc68e33765","name":"Central Infrastructure Technician","longitude":-116.96484330099139,"latitude":32.79477719387544,"photoNum":24},{"id":"78b3f033-777f-40f6-9879-5732b667f4d6","name":"Chief Solutions Orchestrator","longitude":-80.25261392811984,"latitude":26.079412882115747,"photoNum":189},{"id":"239788c8-953f-4873-842f-341a1e7dff5f","name":"Investor Implementation Facilitator","longitude":-115.14371018248784,"latitude":36.15577765615779,"photoNum":123},{"id":"b49e7862-149d-417b-9071-d62f514091e3","name":"Corporate Security Orchestrator","longitude":-121.75205858597923,"latitude":38.54634365165204,"photoNum":15},{"id":"fcb36547-af44-4c72-afc8-88deeddbbff8","name":"Dynamic Integration Engineer","longitude":-112.24590661496467,"latitude":33.57418890812821,"photoNum":195},{"id":"8e02a047-025b-458d-be2c-957b057c8434","name":"International Intranet Manager","longitude":-104.52979612248379,"latitude":33.394298075632165,"photoNum":193},{"id":"24249fa2-9bf4-4dbd-a5c4-0930111dd330","name":"Corporate Metrics Specialist","longitude":-118.78718067434556,"latitude":34.25273636613739,"photoNum":159},{"id":"ecb89ec1-8961-4ae9-955f-0e43c781c675","name":"Product Paradigm Representative","longitude":-117.22056574983878,"latitude":33.77611630657765,"photoNum":190},{"id":"5f88fd27-9a9f-4c9e-83d7-747134c7d987","name":"Customer Accountability Designer","longitude":-119.7523412067012,"latitude":39.5209021521624,"photoNum":141},{"id":"790d6197-d366-4840-a7a3-f2a4bdee22a1","name":"Dynamic Response Assistant","longitude":-121.88431721181666,"latitude":38.027081052677126,"photoNum":163},{"id":"bc92e0a9-fce0-4289-b36e-f679056772af","name":"District Operations Consultant","longitude":-80.14617359920669,"latitude":25.99223584779673,"photoNum":9},{"id":"1e4ddff0-6459-41c2-9541-8da37c63217a","name":"Regional Intranet Designer","longitude":-83.34667910480164,"latitude":42.37018537098175,"photoNum":193},{"id":"c8a049aa-9c1b-45ce-a418-8d24c5c6362f","name":"Regional Branding Specialist","longitude":-96.40130478245152,"latitude":42.499788080162716,"photoNum":7},{"id":"c16fc639-5442-4e65-a38b-d5cf245706bc","name":"Human Group Technician","longitude":-71.56097895417417,"latitude":42.34239869329418,"photoNum":13},{"id":"82641790-6b76-4d56-8214-5ebe2a57d2d5","name":"Corporate Infrastructure Developer","longitude":-88.01765064778465,"latitude":42.95897950333045,"photoNum":197},{"id":"b280a790-5b69-44cb-89ca-f3fcea4e7506","name":"Principal Program Planner","longitude":-71.17178847944206,"latitude":41.70476642572585,"photoNum":7},{"id":"f7453a01-a37c-4c88-9e54-96eae998a478","name":"Principal Usability Planner","longitude":-94.66401347022139,"latitude":38.9845775862148,"photoNum":185},{"id":"7b1bb2d9-0952-4aa3-923f-78e874a9c76c","name":"Direct Paradigm Producer","longitude":-73.53999664444194,"latitude":41.05865842350551,"photoNum":136},{"id":"7d2536aa-7757-4720-b2b3-84092390b7b7","name":"Direct Mobility Consultant","longitude":-83.63943384809778,"latitude":41.032848065883044,"photoNum":177},{"id":"7a1c9399-433c-4831-9420-ffe4480d802f","name":"Legacy Tactics Liaison","longitude":-97.07882202805717,"latitude":32.93369425041612,"photoNum":125},{"id":"c52ef16c-7302-4775-8401-a417caf80ad5","name":"Direct Accountability Executive","longitude":-75.67703801586924,"latitude":41.41374084067326,"photoNum":82},{"id":"5020e24a-b311-4ed4-8dd6-5c81da2e090f","name":"International Interactions Officer","longitude":-95.20742641429797,"latitude":29.53087441708063,"photoNum":17},{"id":"bda6da13-76fe-4b08-8e74-daf7e2058bbe","name":"Principal Markets Officer","longitude":-72.93761811375447,"latitude":41.65906567933905,"photoNum":93},{"id":"25f46e94-14dd-4062-9d5b-801530525d8b","name":"Investor Factors Assistant","longitude":-82.9930833150035,"latitude":39.95543578166764,"photoNum":122},{"id":"2d609795-30cb-4b75-8cba-442ce77b837e","name":"Dynamic Factors Technician","longitude":-118.21813763396915,"latitude":33.92710147489658,"photoNum":107},{"id":"3e030261-8623-4ffc-a266-5ac109828884","name":"Investor Factors Coordinator","longitude":-95.45824562383018,"latitude":30.30322130729259,"photoNum":50},{"id":"d5eff423-ef42-4b31-90bb-620a43ff3792","name":"Chief Response Facilitator","longitude":-94.1404460605587,"latitude":30.074392046272248,"photoNum":53},{"id":"c3391edb-725e-47a7-a2a3-ec97963ff385","name":"Global Assurance Assistant","longitude":-74.24722191195104,"latitude":40.61468030978053,"photoNum":67},{"id":"5518e180-d6eb-49f3-adf9-b4e9f98bb801","name":"Central Division Consultant","longitude":-75.5483830483318,"latitude":39.74251627259123,"photoNum":153},{"id":"690c8d8b-21e9-47e1-b912-89c17f4c872f","name":"Chief Group Designer","longitude":-93.4628217310069,"latitude":45.07681660836744,"photoNum":78},{"id":"d46c5aa8-18bb-4581-b585-9bc93de5b3f6","name":"Corporate Configuration Technician","longitude":-81.37223032108835,"latitude":40.791300024785286,"photoNum":54},{"id":"05ea5946-99a3-47c6-821e-10653f532a7c","name":"Human Assurance Analyst","longitude":-84.19926505232758,"latitude":34.01477260904597,"photoNum":29},{"id":"c888c447-0d06-43e0-8475-fa5038d0db01","name":"Lead Accounts Administrator","longitude":-71.41571318924389,"latitude":41.82537139853072,"photoNum":194},{"id":"09e41e05-51e8-4364-b51f-7f113692c84a","name":"Chief Markets Technician","longitude":-118.08904044900282,"latitude":33.88720320034508,"photoNum":195},{"id":"2057ac1b-cdb6-4f63-a762-11e073e98867","name":"Dynamic Creative Designer","longitude":-111.04871944955863,"latitude":45.67205991512941,"photoNum":110},{"id":"47e3e553-c09f-47c7-bd6b-792dfe479ad5","name":"International Security Agent","longitude":-87.40510352915317,"latitude":39.45048694327256,"photoNum":111},{"id":"c76281c3-b687-4ab3-8f5e-7fbeefad68b7","name":"Product Solutions Administrator","longitude":-98.21164361080457,"latitude":26.197913361947972,"photoNum":90},{"id":"7131508d-26c3-4a7e-a6d6-89f42c52df37","name":"Central Directives Analyst","longitude":-77.40964378274697,"latitude":39.426570431101936,"photoNum":92},{"id":"9d1b87e5-cbbc-4a22-8246-396f540560ff","name":"Internal Applications Producer","longitude":-121.44561392836954,"latitude":37.73906921357308,"photoNum":107},{"id":"0d81102b-e252-450c-9ebd-285890d8ecde","name":"Human Tactics Officer","longitude":-77.94567289610677,"latitude":34.22252371811106,"photoNum":153},{"id":"1f0e9236-fc09-492a-a4e2-0660a204c5fe","name":"National Accounts Assistant","longitude":-102.09202685833003,"latitude":31.996307305652962,"photoNum":10},{"id":"ad315b2b-f1ff-422a-b0ca-b7a749ee77c0","name":"Regional Quality Producer","longitude":-80.321997635831,"latitude":27.4493311429718,"photoNum":66},{"id":"7c53c61c-8dd9-4a6a-94e8-cb71ec947228","name":"Investor Directives Specialist","longitude":-92.08741490738078,"latitude":46.77846023442287,"photoNum":9},{"id":"296494a6-883b-49e2-a1ec-f3f26d115274","name":"Investor Integration Administrator","longitude":-90.49968032177657,"latitude":38.77809108467473,"photoNum":167},{"id":"97286bee-59ac-4081-bc93-306553346b1a","name":"National Operations Executive","longitude":-116.97046483565407,"latitude":32.844095625112615,"photoNum":169},{"id":"cee881c8-4991-4607-b230-e7e5cddf457e","name":"Direct Data Associate","longitude":-73.7007940675557,"latitude":42.72805242418606,"photoNum":90},{"id":"5265fb47-714e-41ad-a655-f9696eeb9fae","name":"Dynamic Interactions Architect","longitude":-117.39687136475186,"latitude":33.951396020988255,"photoNum":172},{"id":"8d5dbe7d-0cab-4b90-9da8-814a8f0f6a17","name":"Principal Functionality Director","longitude":-96.77414391670709,"latitude":46.87602977234805,"photoNum":152},{"id":"ae767c1a-ffa8-42bc-bd03-afaa729dc4bb","name":"Principal Branding Facilitator","longitude":-86.52433612858738,"latitude":35.98501282051698,"photoNum":4},{"id":"b260e397-73b9-4e94-a37e-8441985b2a63","name":"National Division Planner","longitude":-118.21893932546817,"latitude":33.890921002255105,"photoNum":52},{"id":"bd1e5c2f-6ecd-4401-a11c-eb1e9f79aabe","name":"Regional Solutions Analyst","longitude":-122.20860769580099,"latitude":47.298242620970306,"photoNum":89},{"id":"bfa1df90-1107-428a-9ae7-db678cc7bc3b","name":"Lead Web Planner","longitude":-122.13408309147309,"latitude":38.021679971683945,"photoNum":129},{"id":"56691465-14ee-420b-a352-d7f6dc54875c","name":"Central Operations Orchestrator","longitude":-122.077163302874,"latitude":37.667693514415554,"photoNum":164},{"id":"31131af1-0cee-4055-b967-c67303e5f586","name":"Dynamic Paradigm Planner","longitude":-88.01238119508605,"latitude":42.96290828181795,"photoNum":44},{"id":"7541977a-ccf6-4156-823b-5dd1b3c3ee27","name":"Global Markets Officer","longitude":-122.44130155897864,"latitude":45.50967945679773,"photoNum":178},{"id":"b79522c1-346e-4f5d-9143-7de11731472c","name":"Product Metrics Assistant","longitude":-80.42595476921213,"latitude":37.239967021678105,"photoNum":186},{"id":"5976c8b2-5c90-4798-bc80-d796cd9463bf","name":"Internal Brand Officer","longitude":-118.4890150508337,"latitude":34.018680402291324,"photoNum":118},{"id":"b008d935-33f0-4a36-86d7-c37fdbd94075","name":"Product Optimization Officer","longitude":-118.36877473636878,"latitude":33.75292815997184,"photoNum":43},{"id":"180919ca-5e51-4053-843c-314048b599ea","name":"National Implementation Manager","longitude":-117.48900030080443,"latitude":33.98749542843628,"photoNum":46},{"id":"f52de6e8-1c60-4376-a795-0494fcfee1b5","name":"Direct Directives Engineer","longitude":-108.51134867084437,"latitude":45.77258521444132,"photoNum":156},{"id":"e7edfad2-756b-4b21-8fbc-6752be345256","name":"Dynamic Intranet Planner","longitude":-91.25246643790399,"latitude":43.78707274905464,"photoNum":159},{"id":"0c273fbe-781a-4cfb-b0bd-6df6248f49a7","name":"Principal Solutions Engineer","longitude":-89.03573879736149,"latitude":42.67528410322641,"photoNum":111},{"id":"2159978b-2cf7-4b49-8c26-c45a57249834","name":"Lead Operations Agent","longitude":-80.0936036389698,"latitude":26.93454060545013,"photoNum":20},{"id":"bf252e5b-65d9-4a56-a070-1379f79af51b","name":"Corporate Factors Director","longitude":-88.20864745640495,"latitude":41.6281413381237,"photoNum":191},{"id":"78c887d2-7ac7-497a-a71e-d8f2886c8f3e","name":"Dynamic Brand Technician","longitude":-97.01142755874218,"latitude":32.74789753632304,"photoNum":199},{"id":"a334264d-231c-41f0-986c-dc71c725a71e","name":"Direct Implementation Liaison","longitude":-97.3079509011609,"latitude":32.54019945171616,"photoNum":36},{"id":"3ba1dd96-75e6-4e3a-9545-f70bfafba485","name":"International Communications Technician","longitude":-112.18572264212867,"latitude":33.54085138863009,"photoNum":170},{"id":"b8d16537-24fb-44a4-893d-bcd4585a1f04","name":"Regional Factors Coordinator","longitude":-93.27063515070017,"latitude":44.762663241006095,"photoNum":82},{"id":"d5184eda-09c7-48f0-b763-785465d89f5a","name":"International Division Director","longitude":-71.15732344778917,"latitude":42.72102632646568,"photoNum":187},{"id":"91326d77-201b-47e4-bec1-cdc78da8a695","name":"Customer Group Associate","longitude":-95.3794488816269,"latitude":35.742453582889475,"photoNum":158},{"id":"85515890-7e8a-4cbb-8e6e-9d94347f8e4c","name":"Dynamic Integration Administrator","longitude":-94.1299640217349,"latitude":36.2032365168271,"photoNum":123},{"id":"ec89e529-b4de-4245-add6-216ae076376d","name":"Central Accounts Facilitator","longitude":-72.94702619910959,"latitude":41.27188978739268,"photoNum":120},{"id":"9b8511ae-b904-455d-bc78-62ce611cbeb3","name":"Corporate Configuration Developer","longitude":-93.27427727790541,"latitude":44.75866269891158,"photoNum":153},{"id":"379b726a-238e-4eff-9878-ade29faf5318","name":"Regional Operations Assistant","longitude":-89.02436972572008,"latitude":42.67487191811472,"photoNum":44},{"id":"18cffbf1-ac46-4288-b15e-3dcb3a4812ce","name":"Customer Creative Planner","longitude":-106.67431492415164,"latitude":35.23986961735532,"photoNum":99},{"id":"db72457d-5252-4df1-b013-4f26efd230cf","name":"Future Configuration Representative","longitude":-91.66380653416292,"latitude":41.975778945855446,"photoNum":79},{"id":"84a7d074-0729-4c62-95bb-2551ad0ca55c","name":"Principal Paradigm Orchestrator","longitude":-117.69362873314617,"latitude":34.07148437709937,"photoNum":1},{"id":"e08caa20-c3fe-4443-87f1-0bd727bb0b63","name":"Corporate Usability Planner","longitude":-82.1498253770693,"latitude":29.20162288290486,"photoNum":93},{"id":"0077fbe1-9161-4daa-a244-f48c78c08502","name":"Principal Program Technician","longitude":-71.04101774129299,"latitude":42.40260662979325,"photoNum":85},{"id":"d920bd5a-0187-4efb-9989-10c1ffbeea0c","name":"Global Accountability Administrator","longitude":-121.95608409472322,"latitude":37.36295314655593,"photoNum":138},{"id":"94e6b65a-f3d9-4093-a944-c810fb46582e","name":"Forward Metrics Representative","longitude":-110.29055120489193,"latitude":31.553316843557575,"photoNum":177},{"id":"ae871f83-f670-420d-b142-2daec57710ea","name":"Principal Assurance Assistant","longitude":-117.95840774561447,"latitude":33.935424478950395,"photoNum":45},{"id":"2382e29f-553c-4d16-b01b-5ad79b3fea9b","name":"Chief Operations Specialist","longitude":-94.73331946501355,"latitude":38.953639858807996,"photoNum":18},{"id":"ebbf558f-181c-44e9-92e8-43388759ea1f","name":"Future Accountability Coordinator","longitude":-89.0854985085216,"latitude":30.36337424559437,"photoNum":132},{"id":"f81ccd52-27e5-4c6f-9459-0e324fffa9b4","name":"Product Marketing Liaison","longitude":-92.33412357244379,"latitude":42.48639974914221,"photoNum":140},{"id":"1264ce5d-db79-44bb-a6be-a8f789270bfe","name":"Internal Creative Technician","longitude":-101.27771517485849,"latitude":48.23633900549989,"photoNum":156},{"id":"173fccaf-7d30-497a-b437-5996392fadfa","name":"Chief Branding Planner","longitude":-117.88564371074881,"latitude":34.10504063738866,"photoNum":73},{"id":"5065bc1b-a0f5-4f1b-800e-2c771ee7c6ae","name":"Product Operations Liaison","longitude":-111.83306147466709,"latitude":40.577236432948034,"photoNum":66},{"id":"6ae8b2e3-5c92-4537-a017-4d1cd1494266","name":"Legacy Factors Executive","longitude":-75.53895638715454,"latitude":39.73827611171657,"photoNum":90},{"id":"07a44980-ae93-4fd1-b3da-570670c467c0","name":"Senior Factors Planner","longitude":-104.75706419770438,"latitude":39.5029961783065,"photoNum":181},{"id":"b5f60b06-b29c-4c3a-b81b-670b696d47de","name":"Direct Implementation Coordinator","longitude":-117.96857540686977,"latitude":33.714587968114486,"photoNum":135},{"id":"c8cdee12-ce18-43b7-b09c-4d0f84d58d3d","name":"Investor Optimization Facilitator","longitude":-121.21288478850425,"latitude":37.804597833919644,"photoNum":107},{"id":"98a529e4-4b98-41ff-bb9e-fc9ddc8e1076","name":"Future Operations Specialist","longitude":-75.88051473661272,"latitude":41.24826629529625,"photoNum":101},{"id":"9395107a-484f-4515-aa6f-31b68fdc317d","name":"Principal Assurance Officer","longitude":-76.30731606634117,"latitude":36.77323508574046,"photoNum":36},{"id":"5ea0650b-c700-4ef2-9ce3-6ee50d3ae0a4","name":"Investor Integration Assistant","longitude":-75.54220096505998,"latitude":39.73796439466353,"photoNum":171},{"id":"7f244f56-6a71-49f8-ba89-ad8156482f42","name":"Lead Assurance Specialist","longitude":-77.42459974736107,"latitude":34.765307015134745,"photoNum":103},{"id":"c56e1038-bedb-4c40-b616-161f0a88ba6b","name":"Chief Accountability Designer","longitude":-120.48676874607162,"latitude":46.603611086658155,"photoNum":186},{"id":"58866344-fed8-45e1-b68f-d1f829321a54","name":"Senior Division Specialist","longitude":-117.04217866623605,"latitude":32.965138428944165,"photoNum":152},{"id":"d070810c-6977-4f1c-aee9-e3e44c235451","name":"Corporate Integration Analyst","longitude":-117.8055190498012,"latitude":33.878987082145315,"photoNum":59},{"id":"b33fbf3d-ba96-4f29-b00d-48b28e1a9cbd","name":"Dynamic Factors Producer","longitude":-89.08389676122391,"latitude":30.380145044526742,"photoNum":126},{"id":"eded0fc0-b2dc-481f-b6db-eb8543275634","name":"Principal Integration Designer","longitude":-122.0394813337781,"latitude":37.319812921131984,"photoNum":150},{"id":"64a0cfd5-e23f-42c9-bcd1-a22e4bb1d0fe","name":"International Communications Assistant","longitude":-93.15298676803252,"latitude":44.7975016635796,"photoNum":107},{"id":"9cdf57e1-f0a1-4a6d-991a-d486cad69d75","name":"Future Response Planner","longitude":-97.23687402488906,"latitude":32.83731850554639,"photoNum":89},{"id":"16af7538-8d62-4c92-a884-6a446d2f2d75","name":"Dynamic Markets Associate","longitude":-87.4164255130213,"latitude":39.47038777887622,"photoNum":65},{"id":"fb1b30b0-6d9d-43e4-9d24-6974ca23f9ee","name":"Senior Group Producer","longitude":-117.59280778593524,"latitude":33.63808415967753,"photoNum":12},{"id":"6dae69f9-69b2-4cd4-967f-f61fcea4b9a8","name":"Regional Optimization Strategist","longitude":-88.0819176620754,"latitude":41.516599777154916,"photoNum":117},{"id":"46f8027f-7f76-419e-998b-6feb9bdabb1a","name":"Internal Communications Director","longitude":-96.57219146594343,"latitude":32.89649707920295,"photoNum":18},{"id":"0b39cfa5-6afe-439f-83bf-53800b020bf1","name":"Central Solutions Consultant","longitude":-94.58838663488154,"latitude":39.1013103362606,"photoNum":6},{"id":"244cd59c-ee63-43f7-83e5-695b2ed26bb5","name":"District Branding Associate","longitude":-96.63891619443348,"latitude":32.90884227836351,"photoNum":100},{"id":"86cfa26c-c5ed-4010-9cdd-707bdb85af26","name":"Forward Web Coordinator","longitude":-81.05967645307476,"latitude":29.296494571848385,"photoNum":144},{"id":"34ffa1f4-ce6f-4ada-9306-02f40a079e5d","name":"Internal Operations Specialist","longitude":-87.79408600466422,"latitude":41.557332163626555,"photoNum":188},{"id":"ac6bb692-533f-41f1-949e-6e3c03f74972","name":"Human Brand Analyst","longitude":-95.79582813147829,"latitude":36.06642224308723,"photoNum":10},{"id":"530acfa7-2950-4eff-a7a3-4c26e752dd5f","name":"Direct Tactics Technician","longitude":-71.02655495251747,"latitude":42.0937487580385,"photoNum":94},{"id":"70bdaa52-5091-42fa-bfe7-8d998bcd4108","name":"Senior Creative Designer","longitude":-122.36679911169273,"latitude":47.82538422817036,"photoNum":90},{"id":"aea09284-dec4-40f1-be76-68b92d5dfe3d","name":"District Mobility Liaison","longitude":-73.94790896962695,"latitude":42.81337203947935,"photoNum":115},{"id":"c79fea3e-2ddf-414b-a39e-b34e729adfc0","name":"Chief Quality Administrator","longitude":-117.44113517809814,"latitude":34.101118678954315,"photoNum":101},{"id":"9a851185-ecc1-42ce-9ace-4aed2fc27751","name":"Corporate Division Representative","longitude":-118.115320839339,"latitude":34.01940110554782,"photoNum":114},{"id":"1539eb17-fb68-4c14-9079-4c45ab68b6da","name":"Legacy Intranet Representative","longitude":-122.13250450464591,"latitude":38.02046719750903,"photoNum":111},{"id":"5ee8a96d-0f7d-4645-a484-afc126a0c04f","name":"International Division Assistant","longitude":-83.39333013325512,"latitude":42.329171023851785,"photoNum":55},{"id":"ff45844b-df76-41f9-b5c3-440b1890aaff","name":"Senior Program Producer","longitude":-80.25786063421845,"latitude":26.217321150553364,"photoNum":183},{"id":"42ce2a9b-a7d6-4c53-8acf-31246e09fb13","name":"Product Accountability Architect","longitude":-123.10830170259834,"latitude":44.65069740585739,"photoNum":101},{"id":"2aed0104-1c0f-413a-b34e-c0677db89efc","name":"Future Functionality Planner","longitude":-105.94074947796815,"latitude":35.68526064690162,"photoNum":86},{"id":"ad826fb7-9bb2-4a0c-b495-8dd532a69604","name":"Forward Markets Facilitator","longitude":-85.98241102253382,"latitude":41.6830160669376,"photoNum":193},{"id":"d0573f81-3f59-4b4b-ae0b-55484744a74a","name":"Dynamic Security Strategist","longitude":-84.37375873289653,"latitude":33.931448992139465,"photoNum":199},{"id":"397cc897-410a-4b57-8e0d-d091090f05ff","name":"Chief Branding Liaison","longitude":-83.04302754682163,"latitude":42.32724206030137,"photoNum":107},{"id":"4a525baa-5fa8-4b02-84f8-2896501be46a","name":"District Mobility Developer","longitude":-83.55443922951542,"latitude":41.65664135139392,"photoNum":104},{"id":"3b0f332f-9452-4eba-86cf-17359a5e6009","name":"Lead Integration Representative","longitude":-98.1283028958386,"latitude":29.713302593965516,"photoNum":125},{"id":"3fe63687-8aa0-4f93-bb9c-c9c5ed456454","name":"Principal Metrics Manager","longitude":-93.74791983829107,"latitude":32.52424039974401,"photoNum":173},{"id":"ac7bb908-9f23-43a0-ae82-e1b8324f65f8","name":"Forward Security Director","longitude":-74.4053984070083,"latitude":40.631665498831154,"photoNum":191},{"id":"aa90d798-caac-4f2e-8bbc-238716c6d4e8","name":"Human Usability Technician","longitude":-114.32158551803076,"latitude":34.48161755317197,"photoNum":200},{"id":"4f1832f2-c60e-4010-a982-a4e01371c51a","name":"National Mobility Coordinator","longitude":-82.15047642667992,"latitude":29.201695627005563,"photoNum":66},{"id":"946aee82-1455-49e9-a7c3-7bfc833c28ff","name":"International Marketing Executive","longitude":-73.78654766312911,"latitude":40.91409968171526,"photoNum":1},{"id":"23b9b735-a5bf-434d-8482-dbbc660028af","name":"Customer Tactics Executive","longitude":-74.03036467594478,"latitude":40.75871231172564,"photoNum":23},{"id":"266ba525-7d04-4f0e-98b2-5f906238897f","name":"Regional Security Specialist","longitude":-71.40762915168443,"latitude":41.825525195975395,"photoNum":133},{"id":"9cc37260-6580-44e6-9fa9-a7f709b78382","name":"Senior Accountability Executive","longitude":-79.99254232870669,"latitude":40.43782219156174,"photoNum":169},{"id":"49c693e1-0bc8-4172-bb1d-78ad1a8d0215","name":"Customer Solutions Strategist","longitude":-80.26231345344144,"latitude":26.162383691339407,"photoNum":152},{"id":"a1cd8ec9-4a8e-488a-8c5e-debd64c16abb","name":"Legacy Applications Engineer","longitude":-116.7904797235044,"latitude":47.67628651583856,"photoNum":52},{"id":"8b8ed877-ad95-4e62-a680-bc2ee667737c","name":"Regional Accountability Representative","longitude":-111.9347251706971,"latitude":40.52891515919507,"photoNum":111},{"id":"b0c4fa2d-6c93-4f74-88f3-4208cba0f65b","name":"Human Markets Architect","longitude":-84.23366226790625,"latitude":33.96092502401883,"photoNum":177},{"id":"8300a7b5-7785-4c9f-aa20-37803e620edd","name":"Lead Web Associate","longitude":-77.44802804070355,"latitude":34.749414850570254,"photoNum":13},{"id":"602ffffb-0252-4f4a-a07f-0939cd50fec7","name":"District Assurance Specialist","longitude":-75.93915731025834,"latitude":40.32436592264118,"photoNum":20},{"id":"532921da-f263-4abe-922a-5405968bc79c","name":"Chief Quality Officer","longitude":-114.52758527588765,"latitude":35.135168551083055,"photoNum":95},{"id":"82f69ab9-2203-4a78-9e2a-544f61b2232a","name":"Senior Security Coordinator","longitude":-81.37644182952465,"latitude":40.80319583668582,"photoNum":103},{"id":"721e19bf-6923-44a8-9381-e87f7b369808","name":"Dynamic Marketing Supervisor","longitude":-111.2401469251352,"latitude":32.44556599251557,"photoNum":3},{"id":"b9fde0dd-3d8c-42a0-ab23-39beabe97827","name":"Global Marketing Supervisor","longitude":-92.29720208399613,"latitude":34.74761524244788,"photoNum":89},{"id":"77428989-fd0f-4ee4-aa57-70b38a45bffd","name":"Investor Research Liaison","longitude":-104.82113555605679,"latitude":41.15646420504636,"photoNum":100},{"id":"eb7bb4b1-b77c-4499-87d5-f9c479fd6551","name":"Legacy Assurance Representative","longitude":-82.9293951866037,"latitude":42.486290943804065,"photoNum":176},{"id":"f2508995-6eab-4008-a721-bbcbcdfae15e","name":"Product Response Engineer","longitude":-94.15394933866264,"latitude":45.5623163753419,"photoNum":140},{"id":"a13f1369-e165-4c7c-a76c-a219a667e50b","name":"District Division Strategist","longitude":-122.31309850674711,"latitude":47.6087342344815,"photoNum":24},{"id":"7b107ca3-63dc-499c-b9a7-995a46929bab","name":"Customer Configuration Engineer","longitude":-80.32622933395959,"latitude":27.45364680883336,"photoNum":13},{"id":"882d50b1-eb3f-43da-b9df-3d2f4203324c","name":"Corporate Accounts Representative","longitude":-121.30572945442009,"latitude":37.9605728925437,"photoNum":137},{"id":"9ddbcac3-a052-44a0-96db-04c8bce1ac0a","name":"Lead Factors Facilitator","longitude":-118.3345225007622,"latitude":33.8304239324974,"photoNum":187},{"id":"fb9ca034-bd97-4ad3-9b59-7f6ec6004628","name":"Internal Data Engineer","longitude":-88.21996641829026,"latitude":43.018584965226175,"photoNum":107},{"id":"7a9312ac-0293-497f-909e-b5099d195aac","name":"Forward Intranet Engineer","longitude":-99.72970823589765,"latitude":32.4330878685468,"photoNum":89},{"id":"6174ed3c-547d-49c1-8dd8-14c28da41b50","name":"Lead Metrics Engineer","longitude":-76.61899996627557,"latitude":39.27618281688903,"photoNum":153},{"id":"e01f3c75-a89a-4776-ab95-ec5c08dcb0c5","name":"Human Identity Consultant","longitude":-81.65766954913272,"latitude":30.315118951043836,"photoNum":131},{"id":"d98cc656-17a8-42b7-b44c-cff9ed17878f","name":"Regional Metrics Associate","longitude":-91.41300324761215,"latitude":39.93761264947951,"photoNum":139},{"id":"e4266a8c-e130-4831-8351-3728d19f4451","name":"Legacy Web Producer","longitude":-105.09053605457643,"latitude":39.80756034477433,"photoNum":24},{"id":"9764bf23-be16-41cf-bd03-9e370687b09e","name":"Future Functionality Architect","longitude":-81.05814597550449,"latitude":29.28729194794205,"photoNum":120},{"id":"c543c0de-0985-4eb3-9462-cb4009d02618","name":"Forward Accounts Liaison","longitude":-74.13855425061138,"latitude":40.86727547355835,"photoNum":53},{"id":"5a9ca866-be04-42e1-80d5-a35f85120761","name":"Human Accounts Analyst","longitude":-81.39608298265966,"latitude":28.537998487363684,"photoNum":169},{"id":"a9aefa89-d2df-43b6-b696-ea22ac01535f","name":"International Solutions Coordinator","longitude":-76.78733434702264,"latitude":39.0037552612063,"photoNum":169},{"id":"d97201e5-8dee-4351-bcf1-1efee7e3b82e","name":"Regional Factors Associate","longitude":-118.3961351548864,"latitude":33.73750067232042,"photoNum":40},{"id":"add3c968-a592-469f-b180-159a16993e1d","name":"Global Infrastructure Engineer","longitude":-117.82577461596975,"latitude":33.89217759686036,"photoNum":9},{"id":"4e3076a8-8a06-4997-8bdb-30124d071ace","name":"Internal Research Designer","longitude":-93.2659984883233,"latitude":44.97807632601592,"photoNum":50},{"id":"42474a14-ffdb-4619-9e9f-9aa6251add97","name":"Principal Group Director","longitude":-120.42584060877232,"latitude":34.96072557212838,"photoNum":101},{"id":"5f945715-e000-4bcc-8aeb-f0bd5b157d4d","name":"International Interactions Supervisor","longitude":-111.93863765070813,"latitude":33.4265722841028,"photoNum":26},{"id":"3d2aae6c-959a-4616-9f62-df1f0f85b473","name":"Lead Paradigm Orchestrator","longitude":-86.98735378652009,"latitude":34.60017021707112,"photoNum":68},{"id":"5c8343be-03bc-41e0-916d-298f99875c71","name":"Product Quality Technician","longitude":-121.17776838324346,"latitude":38.663342931716,"photoNum":133},{"id":"8c5dc1c1-9eaa-4f74-9859-21161246076c","name":"Senior Quality Analyst","longitude":-84.38110697241905,"latitude":33.92176137639716,"photoNum":133},{"id":"48138f6d-9dde-425c-acef-77e6081b6951","name":"Direct Accounts Director","longitude":-117.71394668521691,"latitude":33.51510090978656,"photoNum":34},{"id":"4f736b81-c067-46b6-a327-4c021ccfa8cc","name":"Legacy Markets Representative","longitude":-104.99051087009707,"latitude":39.73934663653337,"photoNum":136},{"id":"d1f25356-0a62-42e5-8b02-b4789e04fd03","name":"Dynamic Paradigm Designer","longitude":-83.74917607915364,"latitude":42.28567520389956,"photoNum":25},{"id":"5d06bc66-9235-48af-89f9-f05cecaf450b","name":"Future Marketing Planner","longitude":-103.18744542698414,"latitude":34.406662063816874,"photoNum":71},{"id":"fea1651b-8fa1-4d5c-9378-8bac528d54ba","name":"Senior Communications Facilitator","longitude":-97.32736815384897,"latitude":32.54529444913268,"photoNum":13},{"id":"d00fb4f6-6ba6-441f-9319-4dad37f56f10","name":"Human Usability Assistant","longitude":-94.97877340980585,"latitude":29.738598191048435,"photoNum":191},{"id":"73c5ef71-20f0-429f-90f2-530b440d1dc1","name":"Human Assurance Producer","longitude":-112.02006800054818,"latitude":41.174618179931834,"photoNum":72},{"id":"aa7b47f2-20b8-4000-b08b-fa8977fbeb5b","name":"Direct Quality Producer","longitude":-71.45571219255123,"latitude":42.76778285063565,"photoNum":118},{"id":"fe890181-5334-4e9d-8880-d37462c411ac","name":"Dynamic Interactions Designer","longitude":-86.81796324483099,"latitude":33.52774632344473,"photoNum":115},{"id":"0318e656-0b79-467f-85e6-d02a4605e2da","name":"Dynamic Markets Developer","longitude":-80.22430813358017,"latitude":26.14373433928828,"photoNum":114},{"id":"0c133742-b151-4e88-bea4-7fb8e12783f8","name":"Dynamic Optimization Orchestrator","longitude":-71.10701054101332,"latitude":42.43277139334383,"photoNum":167},{"id":"ec30db95-2197-4f44-b323-c4d8346b4bf4","name":"Global Markets Architect","longitude":-84.21462937866636,"latitude":33.970669658633696,"photoNum":116},{"id":"1e7f2cd1-70d7-4b4e-9d64-2f65cefdb5be","name":"Corporate Infrastructure Facilitator","longitude":-102.37557586453113,"latitude":31.860915905920006,"photoNum":156},{"id":"5d6b7452-f5a9-46c1-90f4-c92541b5c04d","name":"Forward Factors Planner","longitude":-73.69561063901165,"latitude":42.74308340635352,"photoNum":101},{"id":"b5180a10-f6ae-4ae8-a9f0-f71a00b99875","name":"Principal Identity Representative","longitude":-90.50604012371372,"latitude":38.776492113195005,"photoNum":66},{"id":"e33e941a-942b-4fbc-861e-44e256d16bb6","name":"International Integration Strategist","longitude":-84.36889001456251,"latitude":34.02832436242362,"photoNum":53},{"id":"2cab3f55-9f8e-47db-a2c0-66fe8b807740","name":"Legacy Mobility Analyst","longitude":-120.06534340888629,"latitude":36.962788377554915,"photoNum":189},{"id":"cdc2222d-2517-4e51-9b79-54eddef8ab84","name":"Internal Metrics Associate","longitude":-121.88012928876003,"latitude":37.67178208458148,"photoNum":104},{"id":"20f09129-e0dc-4d8c-a518-cd397245fa81","name":"Regional Accountability Designer","longitude":-82.57660997105603,"latitude":27.4985127888539,"photoNum":165},{"id":"659d5e5f-61d6-451f-a120-23e52aa5ca67","name":"Dynamic Brand Agent","longitude":-112.47914441149214,"latitude":34.5356678881705,"photoNum":102},{"id":"f178b43e-8017-4c94-9346-e14f77964bf8","name":"Corporate Mobility Associate","longitude":-79.95005144385607,"latitude":37.27192574125397,"photoNum":146},{"id":"2ff98395-c819-4920-a89e-16d25ece6d73","name":"Corporate Group Officer","longitude":-111.88462073983936,"latitude":40.52564679626463,"photoNum":188},{"id":"9a7181c9-5d7f-4119-a6c7-d54244c363cb","name":"Direct Solutions Orchestrator","longitude":-88.17215544334101,"latitude":41.98462361956553,"photoNum":126},{"id":"58120c66-52c3-493e-a5da-7e37853710bf","name":"International Identity Planner","longitude":-81.83240938454281,"latitude":41.30057813503089,"photoNum":165},{"id":"a2e6c7b6-5d65-4b3d-8dfb-c07abdae0a17","name":"Forward Applications Representative","longitude":-104.77495964981159,"latitude":39.51230399667098,"photoNum":5},{"id":"dc2bfad4-63af-4c0a-bf4a-b2df3476fa97","name":"Global Optimization Technician","longitude":-111.78068841775445,"latitude":33.350766614369,"photoNum":4},{"id":"589a5423-40f1-4326-ba1d-ecad35c7e5b1","name":"Lead Paradigm Producer","longitude":-75.9181775931915,"latitude":42.09984714363107,"photoNum":155},{"id":"a4b3c3f2-96ea-4b05-a265-7c297b02ec5d","name":"Principal Optimization Planner","longitude":-116.38498741577303,"latitude":43.60347813922532,"photoNum":187},{"id":"ef6a2790-ebbf-4906-be79-3f78cfa35837","name":"Dynamic Program Assistant","longitude":-99.48605705521788,"latitude":27.532751465189083,"photoNum":21},{"id":"8acf1eae-d226-4b47-9e17-40a1597d4f74","name":"Corporate Operations Orchestrator","longitude":-118.19544925216894,"latitude":33.774322576031686,"photoNum":142},{"id":"dd8b6656-83a1-4a96-89c1-a3a19eb4180f","name":"Human Applications Strategist","longitude":-88.81932939932466,"latitude":35.60284838453162,"photoNum":32},{"id":"e73070d6-66e0-41ae-a80b-85e88dc0169e","name":"Dynamic Infrastructure Agent","longitude":-84.57191886691578,"latitude":39.40107223074673,"photoNum":75},{"id":"87a0ce34-fd81-4a08-8bdf-73edb2a9c185","name":"Lead Accountability Facilitator","longitude":-120.84475258627037,"latitude":37.50836599935104,"photoNum":164},{"id":"ba798bca-dc57-4dae-878a-2dc74f68ded5","name":"Dynamic Factors Coordinator","longitude":-96.80668968894264,"latitude":32.790483217130905,"photoNum":172},{"id":"971b26c3-5d1d-45e8-b2af-a94cce47c4dc","name":"Direct Mobility Strategist","longitude":-80.8265577616857,"latitude":35.23106783908028,"photoNum":21},{"id":"579ee08b-05b9-4d60-b1da-66344cce7102","name":"District Division Officer","longitude":-98.49397608971503,"latitude":29.41810043518779,"photoNum":31},{"id":"01e2b237-8bca-4cf1-a03b-f177f3ea6ea6","name":"Human Optimization Technician","longitude":-87.82282914167041,"latitude":42.58344917446851,"photoNum":36},{"id":"28e1d093-068a-4276-88eb-c6d581ff6859","name":"Lead Accounts Designer","longitude":-93.07440189012004,"latitude":44.962567546355785,"photoNum":13},{"id":"b3ce1d9c-f73a-446d-b6c3-ca05d7e175a6","name":"Dynamic Optimization Associate","longitude":-75.5281508432127,"latitude":39.741511620431304,"photoNum":174},{"id":"d976e4ae-078f-4cb9-8da8-ef99cc0c5447","name":"Corporate Brand Officer","longitude":-85.75032829618931,"latitude":38.249966473813814,"photoNum":134},{"id":"bc9b5997-f89b-4b3d-a3ba-a46289343c29","name":"Product Infrastructure Manager","longitude":-118.02601156578174,"latitude":34.069004094569415,"photoNum":143},{"id":"2111cbe8-21aa-4c37-b4fe-117401ec1657","name":"Central Interactions Producer","longitude":-122.1316030490296,"latitude":37.44407478000477,"photoNum":118},{"id":"ebb112a4-5198-4238-97f2-94ed7a0c2b1d","name":"Direct Branding Developer","longitude":-79.76484924407958,"latitude":34.1952496257509,"photoNum":156},{"id":"169487aa-94ac-4862-a96f-59b886d39333","name":"National Group Officer","longitude":-82.59011798490633,"latitude":27.493279983906003,"photoNum":178},{"id":"b2335ca4-cd3d-4c10-acb0-fba5383937d2","name":"Central Factors Architect","longitude":-118.55212612790996,"latitude":34.39506430783901,"photoNum":82},{"id":"4d597250-7055-416a-a1c1-9ed719d3223d","name":"National Creative Manager","longitude":-74.0978354705523,"latitude":40.66595494624619,"photoNum":197},{"id":"77fe2449-7628-452a-8fca-0be7f4b30e8d","name":"Principal Infrastructure Executive","longitude":-87.79599338758408,"latitude":42.07808618669701,"photoNum":194},{"id":"9ec8b9a2-6040-430a-b67c-0c5cc857e4a6","name":"Future Creative Coordinator","longitude":-81.25928644397607,"latitude":28.79386990586089,"photoNum":91},{"id":"bdc40b94-1126-4c15-9693-1884b236df90","name":"Customer Creative Specialist","longitude":-80.13490668213132,"latitude":26.122498450955664,"photoNum":32},{"id":"ca6da12c-a386-461b-a1f3-d66b9a20489a","name":"Internal Communications Strategist","longitude":-71.35743855203293,"latitude":41.822599082326086,"photoNum":94},{"id":"8df3e9dc-74b9-455b-a6c6-fc52a7c59dc9","name":"Corporate Group Liaison","longitude":-97.72676708891134,"latitude":30.277109567907402,"photoNum":52},{"id":"d29334e1-74c1-40a2-ab15-4e52999d7ddd","name":"Future Implementation Liaison","longitude":-119.16797622198794,"latitude":34.18825934120613,"photoNum":88},{"id":"17845e1f-14c7-4d7d-a733-fa765457a817","name":"Internal Identity Analyst","longitude":-96.85691322161153,"latitude":32.58975841680365,"photoNum":141},{"id":"c41265bc-143c-4a69-ad15-0692b4129237","name":"Dynamic Branding Specialist","longitude":-71.01127688636399,"latitude":42.4069461090092,"photoNum":172},{"id":"af33d99a-fefb-4546-8083-68495d383abb","name":"Dynamic Web Producer","longitude":-70.93458040812749,"latitude":42.20868440425819,"photoNum":92},{"id":"c6b856ac-5cda-4473-ad1a-24b81a8f9b24","name":"Dynamic Implementation Supervisor","longitude":-72.93575334646869,"latitude":41.675763405722655,"photoNum":51},{"id":"b5250320-156a-44b5-ac71-c69eec7738e8","name":"Product Applications Developer","longitude":-86.30763132787871,"latitude":32.36410642252927,"photoNum":177},{"id":"3ac08873-cbbd-4a91-85f2-259537553348","name":"Internal Directives Manager","longitude":-96.65093013046965,"latitude":33.212070547763425,"photoNum":46},{"id":"04e31dc1-a5a5-40cd-a2e3-62c08ca11483","name":"Internal Metrics Representative","longitude":-94.80111764078032,"latitude":29.311299471594886,"photoNum":187},{"id":"79970cf9-244c-4fb4-9e18-a1685f31a55d","name":"Corporate Web Orchestrator","longitude":-114.63315664087008,"latitude":32.68919603991797,"photoNum":164},{"id":"3e92a4fe-ce42-4113-88c9-beb22f540c25","name":"Lead Applications Planner","longitude":-108.23470891779039,"latitude":36.721212872365285,"photoNum":57},{"id":"2276fb34-c4f3-4a24-b3f5-59c1a142a7f9","name":"Central Functionality Executive","longitude":-86.61412421502939,"latitude":36.307012439348014,"photoNum":103},{"id":"17b90eed-675a-4457-aa59-85e94f180770","name":"Investor Program Liaison","longitude":-80.23014091929548,"latitude":26.140194126684385,"photoNum":82},{"id":"f31fef51-065c-4861-80d6-7fd636f0e7c0","name":"Corporate Usability Representative","longitude":-97.00628741791189,"latitude":28.809906036673482,"photoNum":65},{"id":"5a12e8f6-7127-4e64-94e8-2d897e915ee6","name":"Global Brand Developer","longitude":-117.02343220093894,"latitude":32.778188587751686,"photoNum":102},{"id":"2754b0a5-f9a0-4092-b64a-62c4254cc513","name":"Legacy Research Manager","longitude":-95.55031264142684,"latitude":29.615232702469694,"photoNum":16},{"id":"0be2c0ea-094d-46ea-8b2d-764dcce16d55","name":"Customer Response Designer","longitude":-112.35906674804573,"latitude":33.433153078207354,"photoNum":74},{"id":"6e5f2cea-7925-443a-b358-439ff5084c35","name":"National Quality Director","longitude":-96.85591387925626,"latitude":32.580773255972495,"photoNum":200},{"id":"cdf16e56-9c7c-4801-b96a-9f8b53aaf31c","name":"Lead Optimization Technician","longitude":-74.07190569335626,"latitude":40.731905811017874,"photoNum":51},{"id":"fabed26d-aba2-468c-96e1-d96bb049f757","name":"Customer Configuration Facilitator","longitude":-74.00719176223305,"latitude":40.7086273699161,"photoNum":13},{"id":"e6f12afd-6401-432f-a27c-65518d34fcaa","name":"Global Identity Coordinator","longitude":-83.81055263939459,"latitude":39.9209337263026,"photoNum":15},{"id":"b6b82aea-3000-4050-ad76-0f928a8ef514","name":"Direct Identity Strategist","longitude":-84.28191499475389,"latitude":34.076218687120026,"photoNum":183},{"id":"6621fdb0-9b0f-4f31-876f-a5811f12af72","name":"Dynamic Paradigm Director","longitude":-95.37107620228392,"latitude":29.75049617188013,"photoNum":29},{"id":"4c54bf8e-1402-4fbb-9c20-3d1a144e0e33","name":"Senior Data Representative","longitude":-122.88349610432954,"latitude":47.0434596432675,"photoNum":175},{"id":"4d738916-ddcc-440b-bffb-4cf640d1ff70","name":"Dynamic Interactions Designer","longitude":-93.6046977969632,"latitude":41.72714686800866,"photoNum":99},{"id":"5f3d55ac-a9fe-48ce-bf10-375526b12a9f","name":"Global Metrics Analyst","longitude":-72.61286485783342,"latitude":42.144805325992735,"photoNum":36},{"id":"c80fc421-fbc0-4f25-8b47-e4d1b3dfcf17","name":"Human Communications Specialist","longitude":-74.16165439070676,"latitude":40.74910447331489,"photoNum":142},{"id":"27f6b208-c8ff-42cb-943f-1470b1f52897","name":"District Applications Manager","longitude":-122.25603059844275,"latitude":38.10591953540817,"photoNum":50},{"id":"cbba1869-5415-4481-bf29-136385d47069","name":"Principal Web Associate","longitude":-73.75678247027565,"latitude":42.65264054226839,"photoNum":59},